{
  "generatedAt": "2026-04-28T21:11:52.786Z",
  "description": "Catalogue STIB avec arrêts physiques fusionnés par lieu (nom + proximité <150m).",
  "stats": {
    "physicalStops": 2474,
    "mergedStops": 984,
    "duplicatesRemoved": 1490,
    "lines": 148
  },
  "stops": [
    {
      "id": 1,
      "nameFr": "UCCLE CALEVOET",
      "nameNl": "UKKEL KALEVOET",
      "latitude": 50.791437,
      "longitude": 4.332857,
      "lines": [
        "18",
        "43",
        "60"
      ],
      "physicalStopIds": [
        "1962F",
        "1962",
        "5817F",
        "1604",
        "2701"
      ],
      "physicalCount": 5
    },
    {
      "id": 2,
      "nameFr": "WTC",
      "nameNl": "WTC",
      "latitude": 50.861361,
      "longitude": 4.35594,
      "lines": [
        "14",
        "20",
        "46",
        "58",
        "88"
      ],
      "physicalStopIds": [
        "9025",
        "9026",
        "3245",
        "2587",
        "1024B"
      ],
      "physicalCount": 5
    },
    {
      "id": 3,
      "nameFr": "WTC",
      "nameNl": "WTC",
      "latitude": 50.86036,
      "longitude": 4.355422,
      "lines": [
        "46"
      ],
      "physicalStopIds": [
        "1530"
      ],
      "physicalCount": 1
    },
    {
      "id": 4,
      "nameFr": "GAZELLE",
      "nameNl": "GAZELLE",
      "latitude": 50.782083,
      "longitude": 4.341193,
      "lines": [
        "37",
        "43"
      ],
      "physicalStopIds": [
        "2099",
        "2167"
      ],
      "physicalCount": 2
    },
    {
      "id": 5,
      "nameFr": "SCHWEITZER",
      "nameNl": "SCHWEITZER",
      "latitude": 50.864508,
      "longitude": 4.296943,
      "lines": [
        "9",
        "20",
        "82"
      ],
      "physicalStopIds": [
        "1307",
        "1308G",
        "1306",
        "1307F",
        "1306F",
        "1310"
      ],
      "physicalCount": 6
    },
    {
      "id": 6,
      "nameFr": "SPEECKAERT",
      "nameNl": "SPEECKAERT",
      "latitude": 50.84852,
      "longitude": 4.420297,
      "lines": [
        "29"
      ],
      "physicalStopIds": [
        "1521",
        "1558"
      ],
      "physicalCount": 2
    },
    {
      "id": 7,
      "nameFr": "ALTITUDE CENT",
      "nameNl": "HOOGTE HONDERD",
      "latitude": 50.816522,
      "longitude": 4.336317,
      "lines": [
        "18",
        "48"
      ],
      "physicalStopIds": [
        "2410",
        "2457",
        "5836F",
        "5837F"
      ],
      "physicalCount": 4
    },
    {
      "id": 8,
      "nameFr": "FORUM",
      "nameNl": "FORUM",
      "latitude": 50.899086,
      "longitude": 4.357335,
      "lines": [
        "83"
      ],
      "physicalStopIds": [
        "2751",
        "2755"
      ],
      "physicalCount": 2
    },
    {
      "id": 9,
      "nameFr": "HOUBA-BRUGMANN",
      "nameNl": "HOUBA-BRUGMANN",
      "latitude": 50.889898,
      "longitude": 4.337222,
      "lines": [
        "6"
      ],
      "physicalStopIds": [
        "4276",
        "4230",
        "8813",
        "8814"
      ],
      "physicalCount": 4
    },
    {
      "id": 10,
      "nameFr": "HEYSEL",
      "nameNl": "HEIZEL",
      "latitude": 50.897004,
      "longitude": 4.335767,
      "lines": [
        "6",
        "7",
        "62",
        "83"
      ],
      "physicalStopIds": [
        "8824",
        "2741",
        "8825",
        "4264B",
        "8823",
        "4265",
        "9051F"
      ],
      "physicalCount": 7
    },
    {
      "id": 11,
      "nameFr": "HEYSEL",
      "nameNl": "HEIZEL",
      "latitude": 50.896431,
      "longitude": 4.33817,
      "lines": [
        "7",
        "62"
      ],
      "physicalStopIds": [
        "9056F",
        "9058F"
      ],
      "physicalCount": 2
    },
    {
      "id": 12,
      "nameFr": "VERSAILLES",
      "nameNl": "VERSAILLES",
      "latitude": 50.896253,
      "longitude": 4.372129,
      "lines": [
        "53",
        "83"
      ],
      "physicalStopIds": [
        "2854",
        "2816"
      ],
      "physicalCount": 2
    },
    {
      "id": 13,
      "nameFr": "CALYPSO 2000",
      "nameNl": "CALYPSO 2000",
      "latitude": 50.803066,
      "longitude": 4.409388,
      "lines": [
        "17",
        "95"
      ],
      "physicalStopIds": [
        "1453",
        "1455"
      ],
      "physicalCount": 2
    },
    {
      "id": 14,
      "nameFr": "HORTA",
      "nameNl": "HORTA",
      "latitude": 50.825898,
      "longitude": 4.345701,
      "lines": [
        "4",
        "10"
      ],
      "physicalStopIds": [
        "0723",
        "0705"
      ],
      "physicalCount": 2
    },
    {
      "id": 15,
      "nameFr": "TENREUKEN",
      "nameNl": "TENREUKEN",
      "latitude": 50.804968,
      "longitude": 4.426544,
      "lines": [
        "8"
      ],
      "physicalStopIds": [
        "2026",
        "2077"
      ],
      "physicalCount": 2
    },
    {
      "id": 16,
      "nameFr": "ETANGS BOITSFORT",
      "nameNl": "VIJVERS BOSVOORDE",
      "latitude": 50.794019,
      "longitude": 4.418202,
      "lines": [
        "17"
      ],
      "physicalStopIds": [
        "4289",
        "4292"
      ],
      "physicalCount": 2
    },
    {
      "id": 17,
      "nameFr": "HOP.STE-ELISABETH",
      "nameNl": "ST-ELIZABETH-ZKH.",
      "latitude": 50.804834,
      "longitude": 4.368911,
      "lines": [
        "41"
      ],
      "physicalStopIds": [
        "2714",
        "2763"
      ],
      "physicalCount": 2
    },
    {
      "id": 18,
      "nameFr": "FORT-JACO",
      "nameNl": "FORT-JACO",
      "latitude": 50.789427,
      "longitude": 4.37403,
      "lines": [
        "43",
        "92"
      ],
      "physicalStopIds": [
        "2148",
        "2136",
        "2142",
        "2150",
        "6934F"
      ],
      "physicalCount": 5
    },
    {
      "id": 19,
      "nameFr": "HOPITAL MILITAIRE",
      "nameNl": "MILITAIR HOSP.",
      "latitude": 50.907963,
      "longitude": 4.38935,
      "lines": [
        "10",
        "47",
        "53",
        "56"
      ],
      "physicalStopIds": [
        "1038",
        "5798F",
        "5797F",
        "1037"
      ],
      "physicalCount": 4
    },
    {
      "id": 20,
      "nameFr": "BUDA",
      "nameNl": "BUDA",
      "latitude": 50.908595,
      "longitude": 4.406722,
      "lines": [
        "56"
      ],
      "physicalStopIds": [
        "2378",
        "2379"
      ],
      "physicalCount": 2
    },
    {
      "id": 21,
      "nameFr": "TRONE",
      "nameNl": "TROON",
      "latitude": 50.841198,
      "longitude": 4.364831,
      "lines": [
        "12",
        "38",
        "54",
        "71",
        "95"
      ],
      "physicalStopIds": [
        "1780",
        "1734",
        "2948",
        "1124"
      ],
      "physicalCount": 4
    },
    {
      "id": 22,
      "nameFr": "TRONE",
      "nameNl": "TROON",
      "latitude": 50.840448,
      "longitude": 4.366332,
      "lines": [
        "2",
        "6",
        "12",
        "34",
        "38",
        "64",
        "80",
        "95"
      ],
      "physicalStopIds": [
        "2681",
        "6433",
        "8302",
        "8301",
        "2682",
        "6432"
      ],
      "physicalCount": 6
    },
    {
      "id": 23,
      "nameFr": "RUE AU BOIS",
      "nameNl": "BOSSTRAAT",
      "latitude": 50.831134,
      "longitude": 4.451946,
      "lines": [
        "36",
        "39"
      ],
      "physicalStopIds": [
        "1821",
        "5509",
        "1854",
        "5554"
      ],
      "physicalCount": 4
    },
    {
      "id": 24,
      "nameFr": "VALDUC",
      "nameNl": "HERTOGENDAL",
      "latitude": 50.817593,
      "longitude": 4.420496,
      "lines": [
        "34"
      ],
      "physicalStopIds": [
        "1756B",
        "1720B"
      ],
      "physicalCount": 2
    },
    {
      "id": 25,
      "nameFr": "FAIDER",
      "nameNl": "FAIDER",
      "latitude": 50.829782,
      "longitude": 4.35597,
      "lines": [
        "92"
      ],
      "physicalStopIds": [
        "5066",
        "5066F",
        "5018F",
        "5018"
      ],
      "physicalCount": 4
    },
    {
      "id": 26,
      "nameFr": "PALAIS 12",
      "nameNl": "PALEIS 12",
      "latitude": 50.899367,
      "longitude": 4.341111,
      "lines": [
        "83"
      ],
      "physicalStopIds": [
        "2004",
        "2005"
      ],
      "physicalCount": 2
    },
    {
      "id": 27,
      "nameFr": "WAXWEILER",
      "nameNl": "WAXWEILER",
      "latitude": 50.823049,
      "longitude": 4.297053,
      "lines": [
        "75"
      ],
      "physicalStopIds": [
        "1480",
        "1492"
      ],
      "physicalCount": 2
    },
    {
      "id": 28,
      "nameFr": "PAVILLONS MEUDON",
      "nameNl": "MEUDON-PAVILJ.",
      "latitude": 50.893911,
      "longitude": 4.397873,
      "lines": [
        "47"
      ],
      "physicalStopIds": [
        "1089",
        "1090"
      ],
      "physicalCount": 2
    },
    {
      "id": 29,
      "nameFr": "MARGUERITE",
      "nameNl": "MARGARETA",
      "latitude": 50.847096,
      "longitude": 4.387396,
      "lines": [
        "63"
      ],
      "physicalStopIds": [
        "3218"
      ],
      "physicalCount": 1
    },
    {
      "id": 30,
      "nameFr": "THOMAS",
      "nameNl": "THOMAS",
      "latitude": 50.867119,
      "longitude": 4.363786,
      "lines": [
        "10"
      ],
      "physicalStopIds": [
        "6177F"
      ],
      "physicalCount": 1
    },
    {
      "id": 31,
      "nameFr": "THOMAS",
      "nameNl": "THOMAS",
      "latitude": 50.865509,
      "longitude": 4.363707,
      "lines": [
        "10",
        "25",
        "55"
      ],
      "physicalStopIds": [
        "5762",
        "5714"
      ],
      "physicalCount": 2
    },
    {
      "id": 32,
      "nameFr": "VINCOTTE",
      "nameNl": "VINCOTTE",
      "latitude": 50.851575,
      "longitude": 4.384494,
      "lines": [
        "29"
      ],
      "physicalStopIds": [
        "1567",
        "1512"
      ],
      "physicalCount": 2
    },
    {
      "id": 33,
      "nameFr": "LEOPOLD III",
      "nameNl": "LEOPOLD III",
      "latitude": 50.857044,
      "longitude": 4.397776,
      "lines": [
        "7",
        "62",
        "63"
      ],
      "physicalStopIds": [
        "5308F",
        "3761",
        "5354H",
        "5308"
      ],
      "physicalCount": 4
    },
    {
      "id": 34,
      "nameFr": "DA VINCI",
      "nameNl": "DA VINCI",
      "latitude": 50.876464,
      "longitude": 4.411488,
      "lines": [
        "55",
        "62"
      ],
      "physicalStopIds": [
        "5039",
        "5040",
        "5041F",
        "5042"
      ],
      "physicalCount": 4
    },
    {
      "id": 35,
      "nameFr": "DA VINCI",
      "nameNl": "DA VINCI",
      "latitude": 50.874758,
      "longitude": 4.413027,
      "lines": [
        "69",
        "80"
      ],
      "physicalStopIds": [
        "5046",
        "5045"
      ],
      "physicalCount": 2
    },
    {
      "id": 36,
      "nameFr": "DA VINCI",
      "nameNl": "DA VINCI",
      "latitude": 50.876795,
      "longitude": 4.414716,
      "lines": [
        "12"
      ],
      "physicalStopIds": [
        "5044"
      ],
      "physicalCount": 1
    },
    {
      "id": 37,
      "nameFr": "DA VINCI",
      "nameNl": "DA VINCI",
      "latitude": 50.876145,
      "longitude": 4.41044,
      "lines": [
        "12",
        "65"
      ],
      "physicalStopIds": [
        "5048"
      ],
      "physicalCount": 1
    },
    {
      "id": 38,
      "nameFr": "WAUTERS",
      "nameNl": "WAUTERS",
      "latitude": 50.818515,
      "longitude": 4.294711,
      "lines": [
        "75"
      ],
      "physicalStopIds": [
        "1493"
      ],
      "physicalCount": 1
    },
    {
      "id": 39,
      "nameFr": "RONCES",
      "nameNl": "BRAAMSTRUIKEN",
      "latitude": 50.787242,
      "longitude": 4.376073,
      "lines": [
        "43"
      ],
      "physicalStopIds": [
        "2120",
        "2143B"
      ],
      "physicalCount": 2
    },
    {
      "id": 40,
      "nameFr": "ANDROMEDE",
      "nameNl": "ANDROMEDA",
      "latitude": 50.854578,
      "longitude": 4.425185,
      "lines": [
        "61",
        "79"
      ],
      "physicalStopIds": [
        "3962",
        "3920"
      ],
      "physicalCount": 2
    },
    {
      "id": 41,
      "nameFr": "ANDROMEDE",
      "nameNl": "ANDROMEDA",
      "latitude": 50.853057,
      "longitude": 4.424597,
      "lines": [
        "61"
      ],
      "physicalStopIds": [
        "2431",
        "2430"
      ],
      "physicalCount": 2
    },
    {
      "id": 42,
      "nameFr": "LA CHASSE",
      "nameNl": "DE JACHT",
      "latitude": 50.830776,
      "longitude": 4.390045,
      "lines": [
        "34",
        "36",
        "81"
      ],
      "physicalStopIds": [
        "6155F",
        "5480",
        "1805F",
        "2395",
        "1713",
        "1870",
        "1278"
      ],
      "physicalCount": 7
    },
    {
      "id": 43,
      "nameFr": "GARE DU NORD",
      "nameNl": "NOORDSTATION",
      "latitude": 50.860426,
      "longitude": 4.359757,
      "lines": [
        "4",
        "10",
        "14",
        "20",
        "25",
        "55",
        "58",
        "61",
        "88"
      ],
      "physicalStopIds": [
        "0526",
        "1083",
        "1900",
        "0536",
        "3400",
        "0531",
        "0521"
      ],
      "physicalCount": 7
    },
    {
      "id": 44,
      "nameFr": "GARE DU NORD",
      "nameNl": "NOORDSTATION",
      "latitude": 50.860915,
      "longitude": 4.358361,
      "lines": [
        "14",
        "20"
      ],
      "physicalStopIds": [
        "1082"
      ],
      "physicalCount": 1
    },
    {
      "id": 45,
      "nameFr": "YSER",
      "nameNl": "IJZER",
      "latitude": 50.85725,
      "longitude": 4.352356,
      "lines": [
        "2",
        "6",
        "46"
      ],
      "physicalStopIds": [
        "8441",
        "3075",
        "2835",
        "8442"
      ],
      "physicalCount": 4
    },
    {
      "id": 46,
      "nameFr": "FRANS HALS",
      "nameNl": "FRANS HALS",
      "latitude": 50.8268,
      "longitude": 4.288915,
      "lines": [
        "74",
        "T81"
      ],
      "physicalStopIds": [
        "3613",
        "3608B",
        "2605"
      ],
      "physicalCount": 3
    },
    {
      "id": 47,
      "nameFr": "FRANS HALS",
      "nameNl": "FRANS HALS",
      "latitude": 50.826707,
      "longitude": 4.290885,
      "lines": [
        "74"
      ],
      "physicalStopIds": [
        "2619"
      ],
      "physicalCount": 1
    },
    {
      "id": 48,
      "nameFr": "LUXEMBOURG",
      "nameNl": "LUXEMBURG",
      "latitude": 50.839588,
      "longitude": 4.373426,
      "lines": [
        "12",
        "21",
        "34",
        "38",
        "64",
        "80",
        "95"
      ],
      "physicalStopIds": [
        "1131B",
        "1262B",
        "1233",
        "1162C"
      ],
      "physicalCount": 4
    },
    {
      "id": 49,
      "nameFr": "LUXEMBOURG",
      "nameNl": "LUXEMBURG",
      "latitude": 50.838176,
      "longitude": 4.372821,
      "lines": [
        "34",
        "38",
        "80",
        "95"
      ],
      "physicalStopIds": [
        "4367B"
      ],
      "physicalCount": 1
    },
    {
      "id": 50,
      "nameFr": "PLAINE DES SPORTS",
      "nameNl": "SPORTPLEIN",
      "latitude": 50.843378,
      "longitude": 4.487419,
      "lines": [
        "76"
      ],
      "physicalStopIds": [
        "1617",
        "1657"
      ],
      "physicalCount": 2
    },
    {
      "id": 51,
      "nameFr": "UZ-PEDIATRIE",
      "nameNl": "UZ-PEDIATRIE",
      "latitude": 50.889791,
      "longitude": 4.309303,
      "lines": [
        "9",
        "13",
        "88"
      ],
      "physicalStopIds": [
        "1685F",
        "1721",
        "1744",
        "1684F"
      ],
      "physicalCount": 4
    },
    {
      "id": 52,
      "nameFr": "DE HEYN",
      "nameNl": "DE HEYN",
      "latitude": 50.893446,
      "longitude": 4.319509,
      "lines": [
        "9",
        "83"
      ],
      "physicalStopIds": [
        "4223F",
        "1689F",
        "3540",
        "4072B"
      ],
      "physicalCount": 4
    },
    {
      "id": 53,
      "nameFr": "CAVELL",
      "nameNl": "CAVELL",
      "latitude": 50.811498,
      "longitude": 4.357405,
      "lines": [
        "7",
        "60",
        "T7"
      ],
      "physicalStopIds": [
        "5253",
        "5213",
        "2123",
        "2133",
        "7394"
      ],
      "physicalCount": 5
    },
    {
      "id": 54,
      "nameFr": "CAVELL",
      "nameNl": "CAVELL",
      "latitude": 50.811455,
      "longitude": 4.356237,
      "lines": [
        "T7"
      ],
      "physicalStopIds": [
        "2182"
      ],
      "physicalCount": 1
    },
    {
      "id": 55,
      "nameFr": "OSSEGHEM",
      "nameNl": "OSSEGEM",
      "latitude": 50.856858,
      "longitude": 4.32553,
      "lines": [
        "2",
        "6",
        "20"
      ],
      "physicalStopIds": [
        "8753",
        "2081",
        "8754",
        "1202",
        "2082"
      ],
      "physicalCount": 5
    },
    {
      "id": 56,
      "nameFr": "CHASSEURS ARDEN.",
      "nameNl": "ARDENSE JAGERS",
      "latitude": 50.849185,
      "longitude": 4.389651,
      "lines": [
        "28",
        "61"
      ],
      "physicalStopIds": [
        "6056",
        "6021"
      ],
      "physicalCount": 2
    },
    {
      "id": 57,
      "nameFr": "BORDET STATION",
      "nameNl": "BORDET STATION",
      "latitude": 50.878324,
      "longitude": 4.409907,
      "lines": [
        "21",
        "55",
        "59",
        "64",
        "65",
        "69",
        "80"
      ],
      "physicalStopIds": [
        "5361F",
        "5362F",
        "5361",
        "1893",
        "5298",
        "3214",
        "5362",
        "5299"
      ],
      "physicalCount": 8
    },
    {
      "id": 58,
      "nameFr": "MONTGOMERY",
      "nameNl": "MONTGOMERY",
      "latitude": 50.837701,
      "longitude": 4.407059,
      "lines": [
        "1",
        "7",
        "25",
        "39",
        "44",
        "61",
        "80",
        "81"
      ],
      "physicalStopIds": [
        "2289",
        "2283",
        "9996",
        "0801",
        "0089",
        "0806",
        "2286G",
        "2287",
        "8082",
        "2285G",
        "8081"
      ],
      "physicalCount": 11
    },
    {
      "id": 59,
      "nameFr": "FEVRIER",
      "nameNl": "FEBRUARI",
      "latitude": 50.850737,
      "longitude": 4.410784,
      "lines": [
        "80"
      ],
      "physicalStopIds": [
        "3906",
        "3952"
      ],
      "physicalCount": 2
    },
    {
      "id": 60,
      "nameFr": "DEGROOFF",
      "nameNl": "DEGROOFF",
      "latitude": 50.843626,
      "longitude": 4.411731,
      "lines": [
        "28",
        "61",
        "80"
      ],
      "physicalStopIds": [
        "1140",
        "1153"
      ],
      "physicalCount": 2
    },
    {
      "id": 61,
      "nameFr": "BROUSTIN",
      "nameNl": "BROUSTIN",
      "latitude": 50.86811,
      "longitude": 4.326459,
      "lines": [
        "9",
        "19"
      ],
      "physicalStopIds": [
        "6864F",
        "6805F"
      ],
      "physicalCount": 2
    },
    {
      "id": 62,
      "nameFr": "OUD-KAPELLEKE",
      "nameNl": "OUD-KAPELLEKE",
      "latitude": 50.874296,
      "longitude": 4.403467,
      "lines": [
        "21",
        "45",
        "64"
      ],
      "physicalStopIds": [
        "2924",
        "2995",
        "3420"
      ],
      "physicalCount": 3
    },
    {
      "id": 63,
      "nameFr": "SIMONIS",
      "nameNl": "SIMONIS",
      "latitude": 50.863375,
      "longitude": 4.330206,
      "lines": [
        "2",
        "6",
        "9",
        "13",
        "19",
        "49",
        "87"
      ],
      "physicalStopIds": [
        "0472",
        "1286",
        "1112",
        "8763",
        "8764",
        "0473F",
        "0470F",
        "1288",
        "0471",
        "1183"
      ],
      "physicalCount": 10
    },
    {
      "id": 64,
      "nameFr": "SEPT ETOILES",
      "nameNl": "ZEVEN STERREN",
      "latitude": 50.865067,
      "longitude": 4.285012,
      "lines": [
        "20",
        "87"
      ],
      "physicalStopIds": [
        "1193A",
        "1102A"
      ],
      "physicalCount": 2
    },
    {
      "id": 65,
      "nameFr": "SAINT-ANTOINE",
      "nameNl": "SINT-ANTONIUS",
      "latitude": 50.862769,
      "longitude": 4.457491,
      "lines": [
        "42"
      ],
      "physicalStopIds": [
        "2017",
        "2078"
      ],
      "physicalCount": 2
    },
    {
      "id": 66,
      "nameFr": "CONGRES",
      "nameNl": "CONGRES",
      "latitude": 50.850551,
      "longitude": 4.364334,
      "lines": [
        "92",
        "93"
      ],
      "physicalStopIds": [
        "6357F",
        "6357",
        "6308",
        "6308F"
      ],
      "physicalCount": 4
    },
    {
      "id": 67,
      "nameFr": "PLACE SAINT-JOB",
      "nameNl": "SINT-JOBPLEIN",
      "latitude": 50.793838,
      "longitude": 4.366493,
      "lines": [
        "92"
      ],
      "physicalStopIds": [
        "2010",
        "5031F",
        "5054F",
        "2108",
        "2002"
      ],
      "physicalCount": 5
    },
    {
      "id": 68,
      "nameFr": "PLACE SAINT-JOB",
      "nameNl": "SINT-JOBPLEIN",
      "latitude": 50.793818,
      "longitude": 4.364128,
      "lines": [
        "37",
        "60"
      ],
      "physicalStopIds": [
        "1653",
        "1652"
      ],
      "physicalCount": 2
    },
    {
      "id": 69,
      "nameFr": "GARE CENTRALE",
      "nameNl": "CENTRAAL STATION",
      "latitude": 50.846299,
      "longitude": 4.357998,
      "lines": [
        "1",
        "5",
        "29",
        "38",
        "63",
        "65",
        "66",
        "71",
        "89"
      ],
      "physicalStopIds": [
        "6444",
        "2713",
        "1005",
        "8022",
        "6443",
        "2788",
        "8021",
        "6442",
        "6445"
      ],
      "physicalCount": 9
    },
    {
      "id": 70,
      "nameFr": "GARE CENTRALE",
      "nameNl": "CENTRAAL STATION",
      "latitude": 50.84488,
      "longitude": 4.359616,
      "lines": [],
      "physicalStopIds": [
        "1003",
        "1000"
      ],
      "physicalCount": 2
    },
    {
      "id": 71,
      "nameFr": "GARE CENTRALE",
      "nameNl": "CENTRAAL STATION",
      "latitude": 50.844568,
      "longitude": 4.356926,
      "lines": [],
      "physicalStopIds": [
        "1001"
      ],
      "physicalCount": 1
    },
    {
      "id": 72,
      "nameFr": "CERIA",
      "nameNl": "COOVI",
      "latitude": 50.816368,
      "longitude": 4.29018,
      "lines": [
        "5",
        "73",
        "75"
      ],
      "physicalStopIds": [
        "3078",
        "2382",
        "2385",
        "2384",
        "1572",
        "8661",
        "1477B",
        "8662"
      ],
      "physicalCount": 8
    },
    {
      "id": 73,
      "nameFr": "OPTIMISME",
      "nameNl": "OPTIMISME",
      "latitude": 50.862042,
      "longitude": 4.409243,
      "lines": [
        "63"
      ],
      "physicalStopIds": [
        "3240",
        "3766"
      ],
      "physicalCount": 2
    },
    {
      "id": 74,
      "nameFr": "WESTLAND SHOPPING",
      "nameNl": "WESTLAND SHOPPING",
      "latitude": 50.838059,
      "longitude": 4.284099,
      "lines": [
        "46",
        "53",
        "75",
        "89"
      ],
      "physicalStopIds": [
        "1488",
        "1203",
        "2476",
        "1261",
        "1483"
      ],
      "physicalCount": 5
    },
    {
      "id": 75,
      "nameFr": "BIEBUYCK",
      "nameNl": "BIEBUYCK",
      "latitude": 50.888075,
      "longitude": 4.384533,
      "lines": [
        "47"
      ],
      "physicalStopIds": [
        "3007",
        "1077"
      ],
      "physicalCount": 2
    },
    {
      "id": 76,
      "nameFr": "DE VILLALOBAR",
      "nameNl": "DE VILLALOBAR",
      "latitude": 50.827849,
      "longitude": 4.43884,
      "lines": [
        "39",
        "44"
      ],
      "physicalStopIds": [
        "5556",
        "5507"
      ],
      "physicalCount": 2
    },
    {
      "id": 77,
      "nameFr": "WINTEROY",
      "nameNl": "WINTEROY",
      "latitude": 50.864489,
      "longitude": 4.306524,
      "lines": [
        "20"
      ],
      "physicalStopIds": [
        "1120",
        "1119"
      ],
      "physicalCount": 2
    },
    {
      "id": 78,
      "nameFr": "PETILLON",
      "nameNl": "PETILLON",
      "latitude": 50.827695,
      "longitude": 4.403923,
      "lines": [
        "5"
      ],
      "physicalStopIds": [
        "8211",
        "8212"
      ],
      "physicalCount": 2
    },
    {
      "id": 79,
      "nameFr": "PETILLON",
      "nameNl": "PETILLON",
      "latitude": 50.829649,
      "longitude": 4.402853,
      "lines": [
        "7",
        "25"
      ],
      "physicalStopIds": [
        "2698",
        "7968B",
        "5312",
        "5352"
      ],
      "physicalCount": 4
    },
    {
      "id": 80,
      "nameFr": "MONACO",
      "nameNl": "MONACO",
      "latitude": 50.812924,
      "longitude": 4.322786,
      "lines": [
        "82"
      ],
      "physicalStopIds": [
        "2604F",
        "2604",
        "2667F",
        "2667"
      ],
      "physicalCount": 4
    },
    {
      "id": 81,
      "nameFr": "CERES",
      "nameNl": "CERES",
      "latitude": 50.895408,
      "longitude": 4.403144,
      "lines": [
        "58"
      ],
      "physicalStopIds": [
        "5961",
        "5908"
      ],
      "physicalCount": 2
    },
    {
      "id": 82,
      "nameFr": "STATUAIRES",
      "nameNl": "BEELDHOUWERS",
      "latitude": 50.803917,
      "longitude": 4.349267,
      "lines": [
        "37",
        "38",
        "41"
      ],
      "physicalStopIds": [
        "1942",
        "1943"
      ],
      "physicalCount": 2
    },
    {
      "id": 83,
      "nameFr": "PETERBOS",
      "nameNl": "PETERBOS",
      "latitude": 50.838669,
      "longitude": 4.296211,
      "lines": [
        "53",
        "89"
      ],
      "physicalStopIds": [
        "3636",
        "3605"
      ],
      "physicalCount": 2
    },
    {
      "id": 84,
      "nameFr": "EDDY MERCKX",
      "nameNl": "EDDY MERCKX",
      "latitude": 50.8169,
      "longitude": 4.279405,
      "lines": [
        "5",
        "74"
      ],
      "physicalStopIds": [
        "2599",
        "8651",
        "2623"
      ],
      "physicalCount": 3
    },
    {
      "id": 85,
      "nameFr": "EDDY MERCKX",
      "nameNl": "EDDY MERCKX",
      "latitude": 50.816492,
      "longitude": 4.281786,
      "lines": [
        "5"
      ],
      "physicalStopIds": [
        "8652",
        "7671",
        "7675"
      ],
      "physicalCount": 3
    },
    {
      "id": 86,
      "nameFr": "ALBERT",
      "nameNl": "ALBERT",
      "latitude": 50.821698,
      "longitude": 4.343673,
      "lines": [
        "4",
        "10"
      ],
      "physicalStopIds": [
        "0722",
        "0706"
      ],
      "physicalCount": 2
    },
    {
      "id": 87,
      "nameFr": "ALBERT",
      "nameNl": "ALBERT",
      "latitude": 50.82117,
      "longitude": 4.341661,
      "lines": [
        "18",
        "37",
        "48",
        "54"
      ],
      "physicalStopIds": [
        "0711F",
        "2934A",
        "1220",
        "0712F",
        "2957A",
        "1221"
      ],
      "physicalCount": 6
    },
    {
      "id": 88,
      "nameFr": "GULLEDELLE",
      "nameNl": "GULLEDELLE",
      "latitude": 50.85553,
      "longitude": 4.428359,
      "lines": [
        "45",
        "79"
      ],
      "physicalStopIds": [
        "3463",
        "1533"
      ],
      "physicalCount": 2
    },
    {
      "id": 89,
      "nameFr": "PORTE DE NAMUR",
      "nameNl": "NAAMSEPOORT",
      "latitude": 50.838161,
      "longitude": 4.362002,
      "lines": [
        "2",
        "6",
        "34",
        "54",
        "64",
        "71",
        "80"
      ],
      "physicalStopIds": [
        "8312",
        "4952",
        "8311",
        "3518B",
        "2967B"
      ],
      "physicalCount": 5
    },
    {
      "id": 90,
      "nameFr": "PORTE DE NAMUR",
      "nameNl": "NAAMSEPOORT",
      "latitude": 50.839434,
      "longitude": 4.364203,
      "lines": [
        "34",
        "64",
        "80"
      ],
      "physicalStopIds": [
        "1824",
        "1654"
      ],
      "physicalCount": 2
    },
    {
      "id": 91,
      "nameFr": "ROI BAUDOUIN",
      "nameNl": "KONING BOUDEWIJN",
      "latitude": 50.89648,
      "longitude": 4.32913,
      "lines": [
        "6",
        "9",
        "83"
      ],
      "physicalStopIds": [
        "1695F",
        "6482",
        "8833",
        "6481",
        "8834",
        "1695G"
      ],
      "physicalCount": 6
    },
    {
      "id": 92,
      "nameFr": "MERODE",
      "nameNl": "MERODE",
      "latitude": 50.839331,
      "longitude": 4.398483,
      "lines": [
        "1",
        "5",
        "61",
        "80",
        "81"
      ],
      "physicalStopIds": [
        "8071",
        "6462F",
        "1136",
        "1591",
        "8072",
        "1156"
      ],
      "physicalCount": 6
    },
    {
      "id": 93,
      "nameFr": "MERODE",
      "nameNl": "MERODE",
      "latitude": 50.839184,
      "longitude": 4.399971,
      "lines": [
        "81"
      ],
      "physicalStopIds": [
        "6463F"
      ],
      "physicalCount": 1
    },
    {
      "id": 94,
      "nameFr": "EGLISE ST-SERVAIS",
      "nameNl": "ST-SERVAASKERK",
      "latitude": 50.864163,
      "longitude": 4.373413,
      "lines": [
        "92"
      ],
      "physicalStopIds": [
        "6363",
        "6304"
      ],
      "physicalCount": 2
    },
    {
      "id": 95,
      "nameFr": "DAUTZENBERG",
      "nameNl": "DAUTZENBERG",
      "latitude": 50.827645,
      "longitude": 4.36711,
      "lines": [
        "81"
      ],
      "physicalStopIds": [
        "6120",
        "3440",
        "2380F",
        "3441"
      ],
      "physicalCount": 4
    },
    {
      "id": 96,
      "nameFr": "QUART.ST-BONIFACE",
      "nameNl": "ST-BONIFAASWIJK",
      "latitude": 50.83525,
      "longitude": 4.363874,
      "lines": [
        "54",
        "71"
      ],
      "physicalStopIds": [
        "3506",
        "2964B"
      ],
      "physicalCount": 2
    },
    {
      "id": 97,
      "nameFr": "MARLY",
      "nameNl": "MARLY",
      "latitude": 50.898519,
      "longitude": 4.401943,
      "lines": [
        "47"
      ],
      "physicalStopIds": [
        "1053",
        "3063"
      ],
      "physicalCount": 2
    },
    {
      "id": 98,
      "nameFr": "VEEWEYDE",
      "nameNl": "VEEWEIDE",
      "latitude": 50.829771,
      "longitude": 4.300778,
      "lines": [
        "5",
        "49"
      ],
      "physicalStopIds": [
        "8692",
        "6484B",
        "6483B",
        "8691"
      ],
      "physicalCount": 4
    },
    {
      "id": 99,
      "nameFr": "VEEWEYDE",
      "nameNl": "VEEWEIDE",
      "latitude": 50.827405,
      "longitude": 4.301187,
      "lines": [],
      "physicalStopIds": [
        "1930",
        "1934"
      ],
      "physicalCount": 2
    },
    {
      "id": 100,
      "nameFr": "VEEWEYDE",
      "nameNl": "VEEWEIDE",
      "latitude": 50.828489,
      "longitude": 4.299084,
      "lines": [
        "74"
      ],
      "physicalStopIds": [
        "2607",
        "2617"
      ],
      "physicalCount": 2
    },
    {
      "id": 101,
      "nameFr": "VANDERKINDERE",
      "nameNl": "VANDERKINDERE",
      "latitude": 50.813393,
      "longitude": 4.348207,
      "lines": [
        "4",
        "7",
        "10",
        "92",
        "T7"
      ],
      "physicalStopIds": [
        "7398",
        "6423F",
        "6420G",
        "6422F",
        "6421F"
      ],
      "physicalCount": 5
    },
    {
      "id": 102,
      "nameFr": "VANDERKINDERE",
      "nameNl": "VANDERKINDERE",
      "latitude": 50.814389,
      "longitude": 4.347581,
      "lines": [
        "4",
        "10",
        "T7"
      ],
      "physicalStopIds": [
        "2179",
        "6424F"
      ],
      "physicalCount": 2
    },
    {
      "id": 103,
      "nameFr": "TREVES",
      "nameNl": "TRIER",
      "latitude": 50.841489,
      "longitude": 4.374517,
      "lines": [
        "21",
        "64"
      ],
      "physicalStopIds": [
        "1160",
        "1132"
      ],
      "physicalCount": 2
    },
    {
      "id": 104,
      "nameFr": "HOF TER MUSSCHEN",
      "nameNl": "HOF TER MUSSCHEN",
      "latitude": 50.85433,
      "longitude": 4.4478,
      "lines": [
        "42",
        "79"
      ],
      "physicalStopIds": [
        "1043",
        "9853"
      ],
      "physicalCount": 2
    },
    {
      "id": 105,
      "nameFr": "RIBAUCOURT",
      "nameNl": "RIBAUCOURT",
      "latitude": 50.860189,
      "longitude": 4.340564,
      "lines": [
        "2",
        "6",
        "20",
        "86"
      ],
      "physicalStopIds": [
        "5013B",
        "4253",
        "8462",
        "4213",
        "8461"
      ],
      "physicalCount": 5
    },
    {
      "id": 106,
      "nameFr": "AUMALE",
      "nameNl": "AUMALE",
      "latitude": 50.839646,
      "longitude": 4.31244,
      "lines": [
        "5"
      ],
      "physicalStopIds": [
        "8712",
        "7753",
        "8711",
        "7759"
      ],
      "physicalCount": 4
    },
    {
      "id": 107,
      "nameFr": "KATTENBERG",
      "nameNl": "KATTENBERG",
      "latitude": 50.790516,
      "longitude": 4.420068,
      "lines": [
        "17"
      ],
      "physicalStopIds": [
        "4290"
      ],
      "physicalCount": 1
    },
    {
      "id": 108,
      "nameFr": "MAX WALLER",
      "nameNl": "MAX WALLER",
      "latitude": 50.806769,
      "longitude": 4.314626,
      "lines": [
        "50",
        "82"
      ],
      "physicalStopIds": [
        "5156F",
        "3603",
        "3602",
        "5154F"
      ],
      "physicalCount": 4
    },
    {
      "id": 109,
      "nameFr": "ARSENAL",
      "nameNl": "ARSENAAL",
      "latitude": 50.826202,
      "longitude": 4.397435,
      "lines": [
        "7",
        "25",
        "34"
      ],
      "physicalStopIds": [
        "1715",
        "4369",
        "5311",
        "1779",
        "5267"
      ],
      "physicalCount": 5
    },
    {
      "id": 110,
      "nameFr": "ULB",
      "nameNl": "ULB",
      "latitude": 50.813921,
      "longitude": 4.384394,
      "lines": [
        "8",
        "25",
        "71",
        "72"
      ],
      "physicalStopIds": [
        "5407F",
        "5407",
        "3513",
        "3559A",
        "5462F"
      ],
      "physicalCount": 5
    },
    {
      "id": 111,
      "nameFr": "LONDRES",
      "nameNl": "LONDEN",
      "latitude": 50.838011,
      "longitude": 4.368717,
      "lines": [],
      "physicalStopIds": [
        "3620B",
        "3623B"
      ],
      "physicalCount": 2
    },
    {
      "id": 112,
      "nameFr": "GROENINGHE",
      "nameNl": "GROENINGHE",
      "latitude": 50.854077,
      "longitude": 4.328448,
      "lines": [],
      "physicalStopIds": [
        "1244"
      ],
      "physicalCount": 1
    },
    {
      "id": 113,
      "nameFr": "POGGE",
      "nameNl": "POGGE",
      "latitude": 50.866504,
      "longitude": 4.375283,
      "lines": [
        "56",
        "92"
      ],
      "physicalStopIds": [
        "6303",
        "6364F",
        "1007",
        "1006"
      ],
      "physicalCount": 4
    },
    {
      "id": 114,
      "nameFr": "STADE",
      "nameNl": "STADION",
      "latitude": 50.893792,
      "longitude": 4.331879,
      "lines": [
        "9",
        "51",
        "93"
      ],
      "physicalStopIds": [
        "4277",
        "5474",
        "5400",
        "1290",
        "1692F",
        "4229",
        "1693F",
        "1289"
      ],
      "physicalCount": 8
    },
    {
      "id": 115,
      "nameFr": "SUZAN DANIEL",
      "nameNl": "SUZAN DANIEL",
      "latitude": 50.863102,
      "longitude": 4.348179,
      "lines": [
        "14",
        "20",
        "46",
        "86"
      ],
      "physicalStopIds": [
        "1282",
        "1670",
        "1671",
        "1281"
      ],
      "physicalCount": 4
    },
    {
      "id": 116,
      "nameFr": "ROODEBEEK",
      "nameNl": "ROODEBEEK",
      "latitude": 50.847748,
      "longitude": 4.436186,
      "lines": [
        "1",
        "8",
        "29",
        "42",
        "45"
      ],
      "physicalStopIds": [
        "1379",
        "1382",
        "8121",
        "1355",
        "1384",
        "1383",
        "8122",
        "1385",
        "5230F",
        "5229F"
      ],
      "physicalCount": 10
    },
    {
      "id": 117,
      "nameFr": "CARENE",
      "nameNl": "CARINA",
      "latitude": 50.854602,
      "longitude": 4.414881,
      "lines": [
        "21",
        "79",
        "80"
      ],
      "physicalStopIds": [
        "3904",
        "3957"
      ],
      "physicalCount": 2
    },
    {
      "id": 118,
      "nameFr": "WOLVENDAEL",
      "nameNl": "WOLVENDAEL",
      "latitude": 50.798135,
      "longitude": 4.343226,
      "lines": [
        "92"
      ],
      "physicalStopIds": [
        "2709F",
        "2765"
      ],
      "physicalCount": 2
    },
    {
      "id": 119,
      "nameFr": "BASTOGNE",
      "nameNl": "BASTENAKEN",
      "latitude": 50.861605,
      "longitude": 4.315886,
      "lines": [
        "20",
        "49",
        "53"
      ],
      "physicalStopIds": [
        "1097",
        "1197",
        "2569",
        "3486"
      ],
      "physicalCount": 4
    },
    {
      "id": 120,
      "nameFr": "ROYALE",
      "nameNl": "KONING",
      "latitude": 50.841698,
      "longitude": 4.358541,
      "lines": [
        "38",
        "71",
        "92",
        "93",
        "95"
      ],
      "physicalStopIds": [
        "1187",
        "6311F",
        "6354B",
        "6367F",
        "3503",
        "1218"
      ],
      "physicalCount": 6
    },
    {
      "id": 121,
      "nameFr": "ROYALE",
      "nameNl": "KONING",
      "latitude": 50.842748,
      "longitude": 4.358813,
      "lines": [
        "38",
        "71"
      ],
      "physicalStopIds": [
        "3567"
      ],
      "physicalCount": 1
    },
    {
      "id": 122,
      "nameFr": "DECROLY",
      "nameNl": "DECROLY",
      "latitude": 50.804788,
      "longitude": 4.327769,
      "lines": [
        "48",
        "74"
      ],
      "physicalStopIds": [
        "2306",
        "2453",
        "2414"
      ],
      "physicalCount": 3
    },
    {
      "id": 123,
      "nameFr": "PARC MALOU",
      "nameNl": "MALOUPARK",
      "latitude": 50.840433,
      "longitude": 4.439997,
      "lines": [
        "28"
      ],
      "physicalStopIds": [
        "1423",
        "1451"
      ],
      "physicalCount": 2
    },
    {
      "id": 124,
      "nameFr": "MERCHTEM",
      "nameNl": "MERCHTEM",
      "latitude": 50.858341,
      "longitude": 4.336626,
      "lines": [
        "20",
        "86"
      ],
      "physicalStopIds": [
        "1792",
        "4214"
      ],
      "physicalCount": 2
    },
    {
      "id": 125,
      "nameFr": "CUREGHEM",
      "nameNl": "KUREGEM",
      "latitude": 50.836913,
      "longitude": 4.318321,
      "lines": [
        "46",
        "T81"
      ],
      "physicalStopIds": [
        "2259",
        "2218"
      ],
      "physicalCount": 2
    },
    {
      "id": 126,
      "nameFr": "FAUCONNERIE",
      "nameNl": "VALKERIJ",
      "latitude": 50.801199,
      "longitude": 4.422389,
      "lines": [
        "8",
        "95"
      ],
      "physicalStopIds": [
        "5423",
        "5430",
        "4315",
        "4345"
      ],
      "physicalCount": 4
    },
    {
      "id": 127,
      "nameFr": "WIELS",
      "nameNl": "WIELS",
      "latitude": 50.824245,
      "longitude": 4.326324,
      "lines": [
        "49",
        "50",
        "82"
      ],
      "physicalStopIds": [
        "2546",
        "5175",
        "5159",
        "5123",
        "5101B",
        "5100B",
        "5159F"
      ],
      "physicalCount": 7
    },
    {
      "id": 128,
      "nameFr": "UNION",
      "nameNl": "UNION",
      "latitude": 50.820135,
      "longitude": 4.325673,
      "lines": [
        "82"
      ],
      "physicalStopIds": [
        "2734",
        "5151",
        "5120",
        "1230B",
        "2735",
        "1229"
      ],
      "physicalCount": 6
    },
    {
      "id": 129,
      "nameFr": "OCEAN ATLANTIQUE",
      "nameNl": "ATLANT. OCEAAN",
      "latitude": 50.830749,
      "longitude": 4.41842,
      "lines": [
        "36"
      ],
      "physicalStopIds": [
        "1861",
        "1814B"
      ],
      "physicalCount": 2
    },
    {
      "id": 130,
      "nameFr": "PALFIJN",
      "nameNl": "PALFIJN",
      "latitude": 50.893978,
      "longitude": 4.325534,
      "lines": [
        "9",
        "83"
      ],
      "physicalStopIds": [
        "1691F",
        "4261",
        "1690F",
        "4205B"
      ],
      "physicalCount": 4
    },
    {
      "id": 131,
      "nameFr": "CHEMIN VERT",
      "nameNl": "GROENWEG",
      "latitude": 50.896556,
      "longitude": 4.393799,
      "lines": [
        "10"
      ],
      "physicalStopIds": [
        "5788F",
        "5787F"
      ],
      "physicalCount": 2
    },
    {
      "id": 132,
      "nameFr": "NERVIENS",
      "nameNl": "NERVIERS",
      "latitude": 50.83918,
      "longitude": 4.386057,
      "lines": [
        "36"
      ],
      "physicalStopIds": [
        "1158",
        "1134",
        "1873",
        "1802"
      ],
      "physicalCount": 4
    },
    {
      "id": 133,
      "nameFr": "BOTANIQUE",
      "nameNl": "KRUIDTUIN",
      "latitude": 50.853652,
      "longitude": 4.365801,
      "lines": [
        "2",
        "6",
        "61",
        "92",
        "93"
      ],
      "physicalStopIds": [
        "6435",
        "3246",
        "6438",
        "8421",
        "8422",
        "6437F",
        "6434F"
      ],
      "physicalCount": 7
    },
    {
      "id": 134,
      "nameFr": "ODON WARLAND",
      "nameNl": "ODON WARLAND",
      "latitude": 50.870652,
      "longitude": 4.334689,
      "lines": [
        "51"
      ],
      "physicalStopIds": [
        "5077",
        "5008F"
      ],
      "physicalCount": 2
    },
    {
      "id": 135,
      "nameFr": "RADIUM",
      "nameNl": "RADIUM",
      "latitude": 50.852608,
      "longitude": 4.392238,
      "lines": [
        "29"
      ],
      "physicalStopIds": [
        "1514B",
        "1565B"
      ],
      "physicalCount": 2
    },
    {
      "id": 136,
      "nameFr": "TRINITE",
      "nameNl": "DRIEVULDIGHEID",
      "latitude": 50.82498,
      "longitude": 4.357226,
      "lines": [
        "81",
        "96"
      ],
      "physicalStopIds": [
        "1997",
        "2931F"
      ],
      "physicalCount": 2
    },
    {
      "id": 137,
      "nameFr": "BUYL",
      "nameNl": "BUYL",
      "latitude": 50.818951,
      "longitude": 4.379303,
      "lines": [
        "7",
        "25",
        "71"
      ],
      "physicalStopIds": [
        "3480",
        "2351F",
        "2351"
      ],
      "physicalCount": 3
    },
    {
      "id": 138,
      "nameFr": "BUYL",
      "nameNl": "BUYL",
      "latitude": 50.817435,
      "longitude": 4.379986,
      "lines": [
        "7",
        "8",
        "25",
        "71"
      ],
      "physicalStopIds": [
        "2397F",
        "2397",
        "3481"
      ],
      "physicalCount": 3
    },
    {
      "id": 139,
      "nameFr": "GOFFIN",
      "nameNl": "GOFFIN",
      "latitude": 50.86684,
      "longitude": 4.309013,
      "lines": [
        "9"
      ],
      "physicalStopIds": [
        "1199F",
        "1108",
        "1611",
        "1064"
      ],
      "physicalCount": 4
    },
    {
      "id": 140,
      "nameFr": "ARBRE BALLON",
      "nameNl": "DIKKE BEUK",
      "latitude": 50.892848,
      "longitude": 4.31369,
      "lines": [
        "9",
        "13",
        "88"
      ],
      "physicalStopIds": [
        "1686F",
        "1687F",
        "1334",
        "1328"
      ],
      "physicalCount": 4
    },
    {
      "id": 141,
      "nameFr": "HUART-HAMOIR",
      "nameNl": "HUART-HAMOIR",
      "latitude": 50.875973,
      "longitude": 4.383167,
      "lines": [
        "59"
      ],
      "physicalStopIds": [
        "3180",
        "3099"
      ],
      "physicalCount": 2
    },
    {
      "id": 142,
      "nameFr": "PATRIE",
      "nameNl": "VADERLAND",
      "latitude": 50.856677,
      "longitude": 4.39084,
      "lines": [
        "25",
        "62",
        "64",
        "65"
      ],
      "physicalStopIds": [
        "6204F",
        "3298",
        "6258F",
        "3183",
        "3184",
        "6214"
      ],
      "physicalCount": 6
    },
    {
      "id": 143,
      "nameFr": "LONGCHAMP",
      "nameNl": "LONGCHAMP",
      "latitude": 50.811623,
      "longitude": 4.368151,
      "lines": [
        "7",
        "38",
        "T7"
      ],
      "physicalStopIds": [
        "1101",
        "5255",
        "5255F"
      ],
      "physicalCount": 3
    },
    {
      "id": 144,
      "nameFr": "LONGCHAMP",
      "nameNl": "LONGCHAMP",
      "latitude": 50.811978,
      "longitude": 4.367285,
      "lines": [
        "7",
        "38"
      ],
      "physicalStopIds": [
        "5211",
        "1916"
      ],
      "physicalCount": 2
    },
    {
      "id": 145,
      "nameFr": "ENSOR",
      "nameNl": "ENSOR",
      "latitude": 50.920629,
      "longitude": 4.40563,
      "lines": [
        "47"
      ],
      "physicalStopIds": [
        "1481"
      ],
      "physicalCount": 1
    },
    {
      "id": 146,
      "nameFr": "ENSOR",
      "nameNl": "ENSOR",
      "latitude": 50.921057,
      "longitude": 4.4093,
      "lines": [
        "47"
      ],
      "physicalStopIds": [
        "1485"
      ],
      "physicalCount": 1
    },
    {
      "id": 147,
      "nameFr": "CIM. DE MOLENBEEK",
      "nameNl": "BEGR. MOLENBEEK",
      "latitude": 50.858661,
      "longitude": 4.312097,
      "lines": [
        "49",
        "53",
        "82"
      ],
      "physicalStopIds": [
        "4007G",
        "2511",
        "2568"
      ],
      "physicalCount": 3
    },
    {
      "id": 148,
      "nameFr": "CIM. DE MOLENBEEK",
      "nameNl": "BEGR. MOLENBEEK",
      "latitude": 50.859329,
      "longitude": 4.309795,
      "lines": [
        "82"
      ],
      "physicalStopIds": [
        "4054G"
      ],
      "physicalCount": 1
    },
    {
      "id": 149,
      "nameFr": "MICHEL-ANGE",
      "nameNl": "MICHELANGELO",
      "latitude": 50.845243,
      "longitude": 4.38658,
      "lines": [
        "21",
        "63",
        "79"
      ],
      "physicalStopIds": [
        "1464",
        "1402B"
      ],
      "physicalCount": 2
    },
    {
      "id": 150,
      "nameFr": "CONDOR",
      "nameNl": "CONDOR",
      "latitude": 50.852545,
      "longitude": 4.307273,
      "lines": [
        "86",
        "87"
      ],
      "physicalStopIds": [
        "3239",
        "3238"
      ],
      "physicalCount": 2
    },
    {
      "id": 151,
      "nameFr": "ONYX",
      "nameNl": "ONYX",
      "latitude": 50.897543,
      "longitude": 4.322703,
      "lines": [],
      "physicalStopIds": [
        "3536",
        "3539"
      ],
      "physicalCount": 2
    },
    {
      "id": 152,
      "nameFr": "MA CAMPAGNE",
      "nameNl": "MA CAMPAGNE",
      "latitude": 50.823573,
      "longitude": 4.353226,
      "lines": [
        "54",
        "96"
      ],
      "physicalStopIds": [
        "3625B",
        "1848",
        "2959"
      ],
      "physicalCount": 3
    },
    {
      "id": 153,
      "nameFr": "MA CAMPAGNE",
      "nameNl": "MA CAMPAGNE",
      "latitude": 50.822455,
      "longitude": 4.353746,
      "lines": [
        "54",
        "92",
        "96"
      ],
      "physicalStopIds": [
        "5064",
        "5020",
        "2932"
      ],
      "physicalCount": 3
    },
    {
      "id": 154,
      "nameFr": "UZ BRUSSEL",
      "nameNl": "UZ BRUSSEL",
      "latitude": 50.88653,
      "longitude": 4.311387,
      "lines": [
        "9",
        "13",
        "14",
        "88"
      ],
      "physicalStopIds": [
        "1683F",
        "1682F",
        "1722",
        "1743"
      ],
      "physicalCount": 4
    },
    {
      "id": 155,
      "nameFr": "LOUTRIER",
      "nameNl": "OTTERVANGER",
      "latitude": 50.810753,
      "longitude": 4.407068,
      "lines": [
        "41"
      ],
      "physicalStopIds": [
        "4401",
        "4456"
      ],
      "physicalCount": 2
    },
    {
      "id": 156,
      "nameFr": "BELGICA",
      "nameNl": "BELGICA",
      "latitude": 50.86788,
      "longitude": 4.336288,
      "lines": [
        "6",
        "14",
        "51"
      ],
      "physicalStopIds": [
        "8773",
        "1021",
        "8774",
        "5009G",
        "5009B",
        "5076G"
      ],
      "physicalCount": 6
    },
    {
      "id": 157,
      "nameFr": "MERCURE",
      "nameNl": "MERCURIUS",
      "latitude": 50.79662,
      "longitude": 4.356579,
      "lines": [
        "37",
        "60"
      ],
      "physicalStopIds": [
        "4804B",
        "4853"
      ],
      "physicalCount": 2
    },
    {
      "id": 158,
      "nameFr": "LENOIR",
      "nameNl": "LENOIR",
      "latitude": 50.876685,
      "longitude": 4.328117,
      "lines": [
        "19"
      ],
      "physicalStopIds": [
        "6867F",
        "6803F"
      ],
      "physicalCount": 2
    },
    {
      "id": 159,
      "nameFr": "DEBUSSY",
      "nameNl": "DEBUSSY",
      "latitude": 50.827618,
      "longitude": 4.295187,
      "lines": [
        "74"
      ],
      "physicalStopIds": [
        "2618",
        "2606"
      ],
      "physicalCount": 2
    },
    {
      "id": 160,
      "nameFr": "KRAAINEM",
      "nameNl": "KRAAINEM",
      "latitude": 50.848722,
      "longitude": 4.458936,
      "lines": [
        "76",
        "77",
        "79"
      ],
      "physicalStopIds": [
        "1638B",
        "1339",
        "1587"
      ],
      "physicalCount": 3
    },
    {
      "id": 161,
      "nameFr": "NEUBERGER",
      "nameNl": "NEUBERGER",
      "latitude": 50.876204,
      "longitude": 4.306955,
      "lines": [
        "87"
      ],
      "physicalStopIds": [
        "4104",
        "4159"
      ],
      "physicalCount": 2
    },
    {
      "id": 162,
      "nameFr": "VIVIER D'OIE",
      "nameNl": "DIESDELLE",
      "latitude": 50.795339,
      "longitude": 4.37305,
      "lines": [
        "43"
      ],
      "physicalStopIds": [
        "2109B",
        "2138B"
      ],
      "physicalCount": 2
    },
    {
      "id": 163,
      "nameFr": "FORESTERIE",
      "nameNl": "VORSTERIE",
      "latitude": 50.786148,
      "longitude": 4.42484,
      "lines": [
        "17"
      ],
      "physicalStopIds": [
        "1472"
      ],
      "physicalCount": 1
    },
    {
      "id": 164,
      "nameFr": "COLIGNON",
      "nameNl": "COLIGNON",
      "latitude": 50.866972,
      "longitude": 4.373056,
      "lines": [
        "56"
      ],
      "physicalStopIds": [
        "2098",
        "2097"
      ],
      "physicalCount": 2
    },
    {
      "id": 165,
      "nameFr": "MONTALD",
      "nameNl": "MONTALD",
      "latitude": 50.844036,
      "longitude": 4.421241,
      "lines": [
        "28"
      ],
      "physicalStopIds": [
        "1458",
        "1408"
      ],
      "physicalCount": 2
    },
    {
      "id": 166,
      "nameFr": "BASCULE",
      "nameNl": "BASCULE",
      "latitude": 50.81524,
      "longitude": 4.368114,
      "lines": [
        "7",
        "38"
      ],
      "physicalStopIds": [
        "5210",
        "1975",
        "1915",
        "5257F",
        "5256F",
        "5256P",
        "5256"
      ],
      "physicalCount": 7
    },
    {
      "id": 167,
      "nameFr": "BASCULE",
      "nameNl": "BASCULE",
      "latitude": 50.81684,
      "longitude": 4.366084,
      "lines": [
        "T7"
      ],
      "physicalStopIds": [
        "2178"
      ],
      "physicalCount": 1
    },
    {
      "id": 168,
      "nameFr": "BERENSHEIDE",
      "nameNl": "BERENSHEIDE",
      "latitude": 50.813657,
      "longitude": 4.414859,
      "lines": [
        "17"
      ],
      "physicalStopIds": [
        "4296",
        "2198"
      ],
      "physicalCount": 2
    },
    {
      "id": 169,
      "nameFr": "GARE DE BERCHEM",
      "nameNl": "STATION BERCHEM",
      "latitude": 50.872424,
      "longitude": 4.290137,
      "lines": [
        "82",
        "83",
        "87"
      ],
      "physicalStopIds": [
        "2845",
        "2866",
        "4262F",
        "2864",
        "4263F"
      ],
      "physicalCount": 5
    },
    {
      "id": 170,
      "nameFr": "BIPLAN",
      "nameNl": "TWEEDEKKER",
      "latitude": 50.885733,
      "longitude": 4.41031,
      "lines": [
        "65",
        "80"
      ],
      "physicalStopIds": [
        "2908B"
      ],
      "physicalCount": 1
    },
    {
      "id": 171,
      "nameFr": "BIPLAN",
      "nameNl": "TWEEDEKKER",
      "latitude": 50.884092,
      "longitude": 4.410163,
      "lines": [
        "65",
        "80"
      ],
      "physicalStopIds": [
        "1283B"
      ],
      "physicalCount": 1
    },
    {
      "id": 172,
      "nameFr": "HIPPOD. BOITSFORT",
      "nameNl": "RENBAAN BOSVOORDE",
      "latitude": 50.79661,
      "longitude": 4.399666,
      "lines": [
        "8"
      ],
      "physicalStopIds": [
        "5449F",
        "5417F"
      ],
      "physicalCount": 2
    },
    {
      "id": 173,
      "nameFr": "HIPPOD. BOITSFORT",
      "nameNl": "RENBAAN BOSVOORDE",
      "latitude": 50.797204,
      "longitude": 4.394479,
      "lines": [],
      "physicalStopIds": [
        "2757C",
        "5424"
      ],
      "physicalCount": 2
    },
    {
      "id": 174,
      "nameFr": "PARVIS ST-GILLES",
      "nameNl": "ST-GILLISVOORPL.",
      "latitude": 50.830113,
      "longitude": 4.345253,
      "lines": [
        "4",
        "10"
      ],
      "physicalStopIds": [
        "2465",
        "0704",
        "0724",
        "2402"
      ],
      "physicalCount": 4
    },
    {
      "id": 175,
      "nameFr": "STEURS",
      "nameNl": "STEURS",
      "latitude": 50.852879,
      "longitude": 4.377984,
      "lines": [
        "61"
      ],
      "physicalStopIds": [
        "6060",
        "6018"
      ],
      "physicalCount": 2
    },
    {
      "id": 176,
      "nameFr": "DRIES",
      "nameNl": "DRIES",
      "latitude": 50.804001,
      "longitude": 4.39993,
      "lines": [
        "41"
      ],
      "physicalStopIds": [
        "2076",
        "2016"
      ],
      "physicalCount": 2
    },
    {
      "id": 177,
      "nameFr": "DIABLOTINS",
      "nameNl": "DUIVELTJES",
      "latitude": 50.865403,
      "longitude": 4.421936,
      "lines": [
        "63",
        "66",
        "80"
      ],
      "physicalStopIds": [
        "3285",
        "3200"
      ],
      "physicalCount": 2
    },
    {
      "id": 178,
      "nameFr": "RESISTANCE",
      "nameNl": "VERZET",
      "latitude": 50.83568,
      "longitude": 4.311812,
      "lines": [
        "46",
        "49",
        "T81"
      ],
      "physicalStopIds": [
        "3376",
        "3377"
      ],
      "physicalCount": 2
    },
    {
      "id": 179,
      "nameFr": "ENTREPOT",
      "nameNl": "STAPELHUIS",
      "latitude": 50.868476,
      "longitude": 4.353155,
      "lines": [
        "46",
        "86",
        "88"
      ],
      "physicalStopIds": [
        "2370",
        "2305"
      ],
      "physicalCount": 2
    },
    {
      "id": 180,
      "nameFr": "LIVERPOOL",
      "nameNl": "LIVERPOOL",
      "latitude": 50.843569,
      "longitude": 4.334387,
      "lines": [
        "46"
      ],
      "physicalStopIds": [
        "2215B",
        "2262"
      ],
      "physicalCount": 2
    },
    {
      "id": 181,
      "nameFr": "JESPERS",
      "nameNl": "JESPERS",
      "latitude": 50.857384,
      "longitude": 4.441752,
      "lines": [
        "29"
      ],
      "physicalStopIds": [
        "1552",
        "1527"
      ],
      "physicalCount": 2
    },
    {
      "id": 182,
      "nameFr": "BOILEAU",
      "nameNl": "BOILEAU",
      "latitude": 50.832644,
      "longitude": 4.404923,
      "lines": [
        "7",
        "25",
        "36"
      ],
      "physicalStopIds": [
        "0901",
        "0906",
        "2675",
        "1808",
        "1866"
      ],
      "physicalCount": 5
    },
    {
      "id": 183,
      "nameFr": "BOILEAU",
      "nameNl": "BOILEAU",
      "latitude": 50.831236,
      "longitude": 4.40509,
      "lines": [
        "36"
      ],
      "physicalStopIds": [
        "1809B"
      ],
      "physicalCount": 1
    },
    {
      "id": 184,
      "nameFr": "LEMONNIER",
      "nameNl": "LEMONNIER",
      "latitude": 50.840374,
      "longitude": 4.340883,
      "lines": [
        "4",
        "10",
        "51",
        "82"
      ],
      "physicalStopIds": [
        "1227",
        "0626",
        "6657",
        "0621",
        "6601"
      ],
      "physicalCount": 5
    },
    {
      "id": 185,
      "nameFr": "FRUITS",
      "nameNl": "FRUIT",
      "latitude": 50.837473,
      "longitude": 4.290133,
      "lines": [
        "53",
        "75",
        "89"
      ],
      "physicalStopIds": [
        "1204",
        "1260"
      ],
      "physicalCount": 2
    },
    {
      "id": 186,
      "nameFr": "MADOU",
      "nameNl": "MADOU",
      "latitude": 50.84973,
      "longitude": 4.369402,
      "lines": [
        "2",
        "6",
        "29",
        "63",
        "65",
        "66"
      ],
      "physicalStopIds": [
        "8411",
        "1996",
        "3332",
        "1508",
        "1571",
        "3355",
        "8412"
      ],
      "physicalCount": 7
    },
    {
      "id": 187,
      "nameFr": "SCHAERBEEK GARE",
      "nameNl": "SCHAARBEEK STAT.",
      "latitude": 50.877553,
      "longitude": 4.379664,
      "lines": [
        "35",
        "59",
        "69",
        "92"
      ],
      "physicalStopIds": [
        "5300",
        "3177",
        "5320",
        "5315",
        "3106"
      ],
      "physicalCount": 5
    },
    {
      "id": 188,
      "nameFr": "GEORGES HENRI",
      "nameNl": "GEORGES HENRI",
      "latitude": 50.84274,
      "longitude": 4.406139,
      "lines": [
        "7",
        "25",
        "28",
        "61",
        "80"
      ],
      "physicalStopIds": [
        "1459",
        "0811",
        "1424",
        "1139",
        "1154",
        "0816"
      ],
      "physicalCount": 6
    },
    {
      "id": 189,
      "nameFr": "DE WAND",
      "nameNl": "DE WAND",
      "latitude": 50.895317,
      "longitude": 4.356954,
      "lines": [
        "7",
        "19",
        "35",
        "53",
        "83"
      ],
      "physicalStopIds": [
        "5700G",
        "5086F",
        "5806",
        "2813B",
        "2857C"
      ],
      "physicalCount": 5
    },
    {
      "id": 190,
      "nameFr": "DE WAND",
      "nameNl": "DE WAND",
      "latitude": 50.895228,
      "longitude": 4.355074,
      "lines": [
        "19"
      ],
      "physicalStopIds": [
        "5001F",
        "5779"
      ],
      "physicalCount": 2
    },
    {
      "id": 191,
      "nameFr": "EENENS",
      "nameNl": "EENENS",
      "latitude": 50.868107,
      "longitude": 4.376566,
      "lines": [
        "59",
        "92"
      ],
      "physicalStopIds": [
        "3109",
        "3167",
        "6302"
      ],
      "physicalCount": 3
    },
    {
      "id": 192,
      "nameFr": "EENENS",
      "nameNl": "EENENS",
      "latitude": 50.868611,
      "longitude": 4.374847,
      "lines": [
        "92"
      ],
      "physicalStopIds": [
        "6365"
      ],
      "physicalCount": 1
    },
    {
      "id": 193,
      "nameFr": "PARC",
      "nameNl": "PARK",
      "latitude": 50.84629,
      "longitude": 4.362461,
      "lines": [
        "1",
        "5",
        "92",
        "93"
      ],
      "physicalStopIds": [
        "8032",
        "6356",
        "8031",
        "2244",
        "6356F",
        "6309F"
      ],
      "physicalCount": 6
    },
    {
      "id": 194,
      "nameFr": "PARC",
      "nameNl": "PARK",
      "latitude": 50.847606,
      "longitude": 4.36361,
      "lines": [
        "29",
        "63",
        "65",
        "66"
      ],
      "physicalStopIds": [
        "3237",
        "3150"
      ],
      "physicalCount": 2
    },
    {
      "id": 195,
      "nameFr": "PARC",
      "nameNl": "PARK",
      "latitude": 50.84461,
      "longitude": 4.361332,
      "lines": [],
      "physicalStopIds": [
        "3444"
      ],
      "physicalCount": 1
    },
    {
      "id": 196,
      "nameFr": "TERCOIGNE",
      "nameNl": "TERCOIGNE",
      "latitude": 50.812313,
      "longitude": 4.404749,
      "lines": [
        "17"
      ],
      "physicalStopIds": [
        "4294"
      ],
      "physicalCount": 1
    },
    {
      "id": 197,
      "nameFr": "DIABOLO",
      "nameNl": "DIABOLO",
      "latitude": 50.796473,
      "longitude": 4.417673,
      "lines": [
        "17"
      ],
      "physicalStopIds": [
        "4341",
        "4342"
      ],
      "physicalCount": 2
    },
    {
      "id": 198,
      "nameFr": "ETTERBEEK GARE",
      "nameNl": "ETTERBEEK STATION",
      "latitude": 50.822034,
      "longitude": 4.389018,
      "lines": [
        "7",
        "25",
        "95"
      ],
      "physicalStopIds": [
        "5261",
        "4363",
        "4306",
        "5205"
      ],
      "physicalCount": 4
    },
    {
      "id": 199,
      "nameFr": "BESME",
      "nameNl": "BESME",
      "latitude": 50.863671,
      "longitude": 4.324785,
      "lines": [
        "9"
      ],
      "physicalStopIds": [
        "5109",
        "5165",
        "1314"
      ],
      "physicalCount": 3
    },
    {
      "id": 200,
      "nameFr": "PRINCE DE LIEGE",
      "nameNl": "PRINS VAN LUIK",
      "latitude": 50.846038,
      "longitude": 4.299055,
      "lines": [
        "49",
        "53",
        "89"
      ],
      "physicalStopIds": [
        "2750",
        "2522",
        "2748B"
      ],
      "physicalCount": 3
    },
    {
      "id": 201,
      "nameFr": "PRINCE DE LIEGE",
      "nameNl": "PRINS VAN LUIK",
      "latitude": 50.847402,
      "longitude": 4.299103,
      "lines": [
        "49",
        "53"
      ],
      "physicalStopIds": [
        "2564B"
      ],
      "physicalCount": 1
    },
    {
      "id": 202,
      "nameFr": "HUIT HEURES",
      "nameNl": "ACHT UREN",
      "latitude": 50.820497,
      "longitude": 4.299327,
      "lines": [
        "75"
      ],
      "physicalStopIds": [
        "1498"
      ],
      "physicalCount": 1
    },
    {
      "id": 203,
      "nameFr": "EVERE SHOPPING",
      "nameNl": "EVERE SHOPPING",
      "latitude": 50.866777,
      "longitude": 4.404859,
      "lines": [
        "21",
        "66"
      ],
      "physicalStopIds": [
        "3450",
        "3466",
        "3417"
      ],
      "physicalCount": 3
    },
    {
      "id": 204,
      "nameFr": "EVERE SHOPPING",
      "nameNl": "EVERE SHOPPING",
      "latitude": 50.867186,
      "longitude": 4.402683,
      "lines": [
        "62"
      ],
      "physicalStopIds": [
        "5278F",
        "5275F"
      ],
      "physicalCount": 2
    },
    {
      "id": 205,
      "nameFr": "KAREL BOGAERD",
      "nameNl": "KAREL BOGAERD",
      "latitude": 50.881203,
      "longitude": 4.34822,
      "lines": [
        "53"
      ],
      "physicalStopIds": [
        "2809",
        "2545"
      ],
      "physicalCount": 2
    },
    {
      "id": 206,
      "nameFr": "VERBEYST",
      "nameNl": "VERBEYST",
      "latitude": 50.876753,
      "longitude": 4.33109,
      "lines": [
        "14"
      ],
      "physicalStopIds": [
        "2586",
        "2515B"
      ],
      "physicalCount": 2
    },
    {
      "id": 207,
      "nameFr": "BEEKKANT",
      "nameNl": "BEEKKANT",
      "latitude": 50.853504,
      "longitude": 4.322995,
      "lines": [
        "1",
        "2",
        "5",
        "6",
        "87"
      ],
      "physicalStopIds": [
        "8743",
        "8744",
        "8742",
        "8741",
        "4014"
      ],
      "physicalCount": 5
    },
    {
      "id": 208,
      "nameFr": "VAN ZANDE",
      "nameNl": "VAN ZANDE",
      "latitude": 50.860179,
      "longitude": 4.306878,
      "lines": [
        "82"
      ],
      "physicalStopIds": [
        "4006G"
      ],
      "physicalCount": 1
    },
    {
      "id": 209,
      "nameFr": "VAN ZANDE",
      "nameNl": "VAN ZANDE",
      "latitude": 50.861042,
      "longitude": 4.304376,
      "lines": [
        "82"
      ],
      "physicalStopIds": [
        "4055G"
      ],
      "physicalCount": 1
    },
    {
      "id": 210,
      "nameFr": "BOONDAEL GARE",
      "nameNl": "BOONDAAL STATION",
      "latitude": 50.801303,
      "longitude": 4.393229,
      "lines": [
        "8",
        "25",
        "41"
      ],
      "physicalStopIds": [
        "5416",
        "5451F",
        "5416F",
        "5451"
      ],
      "physicalCount": 4
    },
    {
      "id": 211,
      "nameFr": "UCCLE SPORT",
      "nameNl": "UKKEL SPORT",
      "latitude": 50.798554,
      "longitude": 4.313102,
      "lines": [
        "50"
      ],
      "physicalStopIds": [
        "2662B",
        "2664"
      ],
      "physicalCount": 2
    },
    {
      "id": 212,
      "nameFr": "PETITE ILE",
      "nameNl": "KLEIN EILAND",
      "latitude": 50.830517,
      "longitude": 4.319746,
      "lines": [
        "73",
        "78"
      ],
      "physicalStopIds": [
        "3858",
        "3805"
      ],
      "physicalCount": 2
    },
    {
      "id": 213,
      "nameFr": "AVIATION",
      "nameNl": "LUCHTVAART",
      "latitude": 50.834795,
      "longitude": 4.456773,
      "lines": [
        "39"
      ],
      "physicalStopIds": [
        "5553",
        "5510"
      ],
      "physicalCount": 2
    },
    {
      "id": 214,
      "nameFr": "GARE DE L'OUEST",
      "nameNl": "WESTSTATION",
      "latitude": 50.848814,
      "longitude": 4.321288,
      "lines": [
        "1",
        "2",
        "5",
        "6",
        "82",
        "86"
      ],
      "physicalStopIds": [
        "8732",
        "3230",
        "1583",
        "3253F",
        "8382",
        "1145",
        "8731",
        "8733",
        "3253",
        "8381",
        "3230F"
      ],
      "physicalCount": 11
    },
    {
      "id": 215,
      "nameFr": "PORTE DE NINOVE",
      "nameNl": "NINOOFSEPOORT",
      "latitude": 50.850506,
      "longitude": 4.338764,
      "lines": [
        "51",
        "89"
      ],
      "physicalStopIds": [
        "3223B",
        "3259C",
        "6653F",
        "6649F"
      ],
      "physicalCount": 4
    },
    {
      "id": 216,
      "nameFr": "PORTE DE NINOVE",
      "nameNl": "NINOOFSEPOORT",
      "latitude": 50.849497,
      "longitude": 4.337316,
      "lines": [],
      "physicalStopIds": [
        "3390"
      ],
      "physicalCount": 1
    },
    {
      "id": 217,
      "nameFr": "MAISON D'ERASME",
      "nameNl": "ERASMUSHUIS",
      "latitude": 50.837254,
      "longitude": 4.307401,
      "lines": [
        "49"
      ],
      "physicalStopIds": [
        "2562B"
      ],
      "physicalCount": 1
    },
    {
      "id": 218,
      "nameFr": "LEFRANCQ",
      "nameNl": "LEFRANCQ",
      "latitude": 50.861451,
      "longitude": 4.367827,
      "lines": [
        "25",
        "62",
        "93"
      ],
      "physicalStopIds": [
        "6066G",
        "6201F",
        "6260F",
        "6012G"
      ],
      "physicalCount": 4
    },
    {
      "id": 219,
      "nameFr": "GARE DU MIDI",
      "nameNl": "ZUIDSTATION",
      "latitude": 50.838562,
      "longitude": 4.336474,
      "lines": [
        "73",
        "78",
        "T81"
      ],
      "physicalStopIds": [
        "1664",
        "1662"
      ],
      "physicalCount": 2
    },
    {
      "id": 220,
      "nameFr": "GARE DU MIDI",
      "nameNl": "ZUIDSTATION",
      "latitude": 50.836453,
      "longitude": 4.338063,
      "lines": [
        "2",
        "6",
        "48",
        "49",
        "50",
        "51",
        "81",
        "82",
        "96"
      ],
      "physicalStopIds": [
        "0631",
        "8351",
        "8352",
        "2531",
        "2780",
        "3211",
        "0636",
        "2778"
      ],
      "physicalCount": 8
    },
    {
      "id": 221,
      "nameFr": "JUPITER",
      "nameNl": "JUPITER",
      "latitude": 50.819554,
      "longitude": 4.336913,
      "lines": [
        "18",
        "54"
      ],
      "physicalStopIds": [
        "2951",
        "5839F",
        "5838F",
        "2935"
      ],
      "physicalCount": 4
    },
    {
      "id": 222,
      "nameFr": "ALPHONSE XIII",
      "nameNl": "ALPHONSE XIII",
      "latitude": 50.79115,
      "longitude": 4.368536,
      "lines": [
        "92"
      ],
      "physicalStopIds": [
        "5053G",
        "5032G",
        "5053B",
        "1607"
      ],
      "physicalCount": 4
    },
    {
      "id": 223,
      "nameFr": "AZALEES",
      "nameNl": "AZALEA",
      "latitude": 50.862547,
      "longitude": 4.380741,
      "lines": [
        "56",
        "66"
      ],
      "physicalStopIds": [
        "3414",
        "3451"
      ],
      "physicalCount": 2
    },
    {
      "id": 224,
      "nameFr": "CIM. DE BRUXELLES",
      "nameNl": "BEGR. VAN BRUSSEL",
      "latitude": 50.863947,
      "longitude": 4.418555,
      "lines": [
        "63",
        "66",
        "80"
      ],
      "physicalStopIds": [
        "3661",
        "3274",
        "3401"
      ],
      "physicalCount": 3
    },
    {
      "id": 225,
      "nameFr": "MADELEINE",
      "nameNl": "MAGDALENA",
      "latitude": 50.843583,
      "longitude": 4.35476,
      "lines": [],
      "physicalStopIds": [
        "2739",
        "2840"
      ],
      "physicalCount": 2
    },
    {
      "id": 226,
      "nameFr": "DUCHESSE BRABANT",
      "nameNl": "HERTOGIN BRABANT",
      "latitude": 50.849518,
      "longitude": 4.329529,
      "lines": [
        "82",
        "86",
        "89"
      ],
      "physicalStopIds": [
        "4594",
        "3226F",
        "3263F",
        "4595"
      ],
      "physicalCount": 4
    },
    {
      "id": 227,
      "nameFr": "EGGERGAT",
      "nameNl": "EGGERGAT",
      "latitude": 50.795119,
      "longitude": 4.31595,
      "lines": [
        "75"
      ],
      "physicalStopIds": [
        "5923"
      ],
      "physicalCount": 1
    },
    {
      "id": 228,
      "nameFr": "EGGERGAT",
      "nameNl": "EGGERGAT",
      "latitude": 50.794272,
      "longitude": 4.312968,
      "lines": [
        "75"
      ],
      "physicalStopIds": [
        "5922"
      ],
      "physicalCount": 1
    },
    {
      "id": 229,
      "nameFr": "CARLI",
      "nameNl": "CARLI",
      "latitude": 50.879324,
      "longitude": 4.393513,
      "lines": [
        "59",
        "69"
      ],
      "physicalStopIds": [
        "3103",
        "3173"
      ],
      "physicalCount": 2
    },
    {
      "id": 230,
      "nameFr": "STOCKEL",
      "nameNl": "STOKKEL",
      "latitude": 50.841521,
      "longitude": 4.464899,
      "lines": [
        "1",
        "39"
      ],
      "physicalStopIds": [
        "6474F",
        "8162",
        "6475F",
        "8161"
      ],
      "physicalCount": 4
    },
    {
      "id": 231,
      "nameFr": "STOCKEL",
      "nameNl": "STOKKEL",
      "latitude": 50.840327,
      "longitude": 4.463279,
      "lines": [
        "36"
      ],
      "physicalStopIds": [
        "1302",
        "1252"
      ],
      "physicalCount": 2
    },
    {
      "id": 232,
      "nameFr": "DOCKS BRUXSEL",
      "nameNl": "DOCKS BRUXSEL",
      "latitude": 50.879282,
      "longitude": 4.375361,
      "lines": [
        "7",
        "35",
        "56",
        "58"
      ],
      "physicalStopIds": [
        "2096",
        "2367",
        "5758F",
        "5759F",
        "5761"
      ],
      "physicalCount": 5
    },
    {
      "id": 233,
      "nameFr": "DOCKS BRUXSEL",
      "nameNl": "DOCKS BRUXSEL",
      "latitude": 50.879488,
      "longitude": 4.370973,
      "lines": [
        "10"
      ],
      "physicalStopIds": [
        "2337F",
        "2338F"
      ],
      "physicalCount": 2
    },
    {
      "id": 234,
      "nameFr": "DOCKS BRUXSEL",
      "nameNl": "DOCKS BRUXSEL",
      "latitude": 50.878679,
      "longitude": 4.37712,
      "lines": [
        "58"
      ],
      "physicalStopIds": [
        "5760"
      ],
      "physicalCount": 1
    },
    {
      "id": 235,
      "nameFr": "ERASME",
      "nameNl": "ERASMUS",
      "latitude": 50.815193,
      "longitude": 4.266344,
      "lines": [
        "5",
        "74"
      ],
      "physicalStopIds": [
        "8642",
        "2625",
        "2598",
        "8641"
      ],
      "physicalCount": 4
    },
    {
      "id": 236,
      "nameFr": "GARE DE JETTE",
      "nameNl": "STATION JETTE",
      "latitude": 50.880176,
      "longitude": 4.330264,
      "lines": [
        "14",
        "19",
        "88"
      ],
      "physicalStopIds": [
        "6869G",
        "6800F",
        "1036",
        "1035"
      ],
      "physicalCount": 4
    },
    {
      "id": 237,
      "nameFr": "BIENFAITEURS",
      "nameNl": "WELDOENERS",
      "latitude": 50.85801,
      "longitude": 4.384254,
      "lines": [
        "25",
        "62",
        "65"
      ],
      "physicalStopIds": [
        "6210",
        "3360F",
        "3299",
        "3308F"
      ],
      "physicalCount": 4
    },
    {
      "id": 238,
      "nameFr": "PETIT SABLON",
      "nameNl": "KLEINE ZAVEL",
      "latitude": 50.839659,
      "longitude": 4.355783,
      "lines": [
        "92",
        "93",
        "95"
      ],
      "physicalStopIds": [
        "6312F",
        "6353",
        "1128",
        "6366F",
        "1285"
      ],
      "physicalCount": 5
    },
    {
      "id": 239,
      "nameFr": "MOMMAERTS",
      "nameNl": "MOMMAERTS",
      "latitude": 50.856885,
      "longitude": 4.412851,
      "lines": [
        "21"
      ],
      "physicalStopIds": [
        "3961",
        "4505"
      ],
      "physicalCount": 2
    },
    {
      "id": 240,
      "nameFr": "VILVOORDE STATION",
      "nameNl": "VILVOORDE STATION",
      "latitude": 50.92402,
      "longitude": 4.431442,
      "lines": [
        "47",
        "58"
      ],
      "physicalStopIds": [
        "9784B",
        "9751"
      ],
      "physicalCount": 2
    },
    {
      "id": 241,
      "nameFr": "AUDREY HEPBURN",
      "nameNl": "AUDREY HEPBURN",
      "latitude": 50.889778,
      "longitude": 4.316269,
      "lines": [
        "13",
        "88"
      ],
      "physicalStopIds": [
        "2850",
        "2849"
      ],
      "physicalCount": 2
    },
    {
      "id": 242,
      "nameFr": "PANNENHUIS",
      "nameNl": "PANNENHUIS",
      "latitude": 50.873172,
      "longitude": 4.342591,
      "lines": [
        "6",
        "46"
      ],
      "physicalStopIds": [
        "3293",
        "8784",
        "3312",
        "8783"
      ],
      "physicalCount": 4
    },
    {
      "id": 243,
      "nameFr": "AULNE",
      "nameNl": "ELZEBOOM",
      "latitude": 50.802945,
      "longitude": 4.330492,
      "lines": [
        "48",
        "74"
      ],
      "physicalStopIds": [
        "2415"
      ],
      "physicalCount": 1
    },
    {
      "id": 244,
      "nameFr": "PLACE R. ASTRID",
      "nameNl": "KONINGIN ASTRIDPL",
      "latitude": 50.873453,
      "longitude": 4.325879,
      "lines": [
        "19"
      ],
      "physicalStopIds": [
        "6866F",
        "6804F"
      ],
      "physicalCount": 2
    },
    {
      "id": 245,
      "nameFr": "PORTE DE HAL",
      "nameNl": "HALLEPOORT",
      "latitude": 50.833385,
      "longitude": 4.343225,
      "lines": [
        "2",
        "4",
        "6",
        "10",
        "48"
      ],
      "physicalStopIds": [
        "1801",
        "2129",
        "1169",
        "0703",
        "0725",
        "8342",
        "8341",
        "2467"
      ],
      "physicalCount": 8
    },
    {
      "id": 246,
      "nameFr": "PORTE DE HAL",
      "nameNl": "HALLEPOORT",
      "latitude": 50.832111,
      "longitude": 4.344862,
      "lines": [],
      "physicalStopIds": [
        "2470"
      ],
      "physicalCount": 1
    },
    {
      "id": 247,
      "nameFr": "MARIE-JOSE",
      "nameNl": "MARIE-JOSE",
      "latitude": 50.806518,
      "longitude": 4.387656,
      "lines": [
        "8",
        "25"
      ],
      "physicalStopIds": [
        "5414F",
        "5460F"
      ],
      "physicalCount": 2
    },
    {
      "id": 248,
      "nameFr": "ETANGS NOIRS",
      "nameNl": "ZWARTE VIJVERS",
      "latitude": 50.85724,
      "longitude": 4.332976,
      "lines": [
        "1",
        "5",
        "13",
        "20",
        "86"
      ],
      "physicalStopIds": [
        "4074B",
        "4111",
        "8292",
        "6471"
      ],
      "physicalCount": 4
    },
    {
      "id": 249,
      "nameFr": "ETANGS NOIRS",
      "nameNl": "ZWARTE VIJVERS",
      "latitude": 50.85711,
      "longitude": 4.331834,
      "lines": [
        "1",
        "5",
        "20"
      ],
      "physicalStopIds": [
        "8291",
        "1793"
      ],
      "physicalCount": 2
    },
    {
      "id": 250,
      "nameFr": "RTL HOUSE",
      "nameNl": "RTL HOUSE",
      "latitude": 50.857404,
      "longitude": 4.407811,
      "lines": [
        "21"
      ],
      "physicalStopIds": [
        "4500B",
        "4558"
      ],
      "physicalCount": 2
    },
    {
      "id": 251,
      "nameFr": "DIAMANT",
      "nameNl": "DIAMANT",
      "latitude": 50.849092,
      "longitude": 4.401923,
      "lines": [
        "7",
        "21",
        "25",
        "28",
        "29",
        "79"
      ],
      "physicalStopIds": [
        "6450",
        "6451",
        "6448",
        "0821",
        "6449",
        "0826",
        "6454"
      ],
      "physicalCount": 7
    },
    {
      "id": 252,
      "nameFr": "PALAIS",
      "nameNl": "PALEIZEN",
      "latitude": 50.843855,
      "longitude": 4.36086,
      "lines": [
        "92",
        "93"
      ],
      "physicalStopIds": [
        "6355F",
        "6310F",
        "6355"
      ],
      "physicalCount": 3
    },
    {
      "id": 253,
      "nameFr": "NAPOLEON",
      "nameNl": "NAPOLEON",
      "latitude": 50.778634,
      "longitude": 4.373884,
      "lines": [
        "43"
      ],
      "physicalStopIds": [
        "2146"
      ],
      "physicalCount": 1
    },
    {
      "id": 254,
      "nameFr": "NAPOLEON",
      "nameNl": "NAPOLEON",
      "latitude": 50.779259,
      "longitude": 4.376415,
      "lines": [
        "43"
      ],
      "physicalStopIds": [
        "2117B"
      ],
      "physicalCount": 1
    },
    {
      "id": 255,
      "nameFr": "BEAUTE",
      "nameNl": "SCHOONHEID",
      "latitude": 50.839292,
      "longitude": 4.307299,
      "lines": [
        "49"
      ],
      "physicalStopIds": [
        "2533B",
        "2560"
      ],
      "physicalCount": 2
    },
    {
      "id": 256,
      "nameFr": "PLACE V. HORTA",
      "nameNl": "VICTOR HORTAPLEIN",
      "latitude": 50.834784,
      "longitude": 4.332879,
      "lines": [
        "73",
        "78"
      ],
      "physicalStopIds": [
        "2541"
      ],
      "physicalCount": 1
    },
    {
      "id": 257,
      "nameFr": "DIGUE DU CANAL",
      "nameNl": "VAARTDIJK",
      "latitude": 50.823905,
      "longitude": 4.309921,
      "lines": [
        "49",
        "73",
        "74",
        "78"
      ],
      "physicalStopIds": [
        "3856",
        "3808",
        "3681",
        "3682"
      ],
      "physicalCount": 4
    },
    {
      "id": 258,
      "nameFr": "DAILLY",
      "nameNl": "DAILLY",
      "latitude": 50.853001,
      "longitude": 4.387864,
      "lines": [
        "29",
        "56",
        "61",
        "64"
      ],
      "physicalStopIds": [
        "2974",
        "9296",
        "2918",
        "1566",
        "9291",
        "1513"
      ],
      "physicalCount": 6
    },
    {
      "id": 259,
      "nameFr": "MARGUERITE DURAS",
      "nameNl": "MARGUERITE DURAS",
      "latitude": 50.855491,
      "longitude": 4.346631,
      "lines": [
        "51"
      ],
      "physicalStopIds": [
        "2848F"
      ],
      "physicalCount": 1
    },
    {
      "id": 260,
      "nameFr": "ANCIENNE BARRIERE",
      "nameNl": "OUDE AFSPANNING",
      "latitude": 50.885365,
      "longitude": 4.317017,
      "lines": [
        "9",
        "14"
      ],
      "physicalStopIds": [
        "1680F",
        "1368",
        "1681F",
        "1103"
      ],
      "physicalCount": 4
    },
    {
      "id": 261,
      "nameFr": "LEGRAND",
      "nameNl": "LEGRAND",
      "latitude": 50.81602,
      "longitude": 4.371652,
      "lines": [
        "7",
        "8",
        "93",
        "T7"
      ],
      "physicalStopIds": [
        "1048F",
        "1046G",
        "1059",
        "1049F",
        "1047F",
        "7524B"
      ],
      "physicalCount": 6
    },
    {
      "id": 262,
      "nameFr": "PRINC. CLEMENTINE",
      "nameNl": "PRINS. CLEMENTINA",
      "latitude": 50.877065,
      "longitude": 4.354225,
      "lines": [
        "62",
        "93"
      ],
      "physicalStopIds": [
        "6122",
        "6174F"
      ],
      "physicalCount": 2
    },
    {
      "id": 263,
      "nameFr": "GRIBAUMONT",
      "nameNl": "GRIBAUMONT",
      "latitude": 50.84255,
      "longitude": 4.418627,
      "lines": [
        "1"
      ],
      "physicalStopIds": [
        "8101",
        "8102"
      ],
      "physicalCount": 2
    },
    {
      "id": 264,
      "nameFr": "FIRMIN LECHARLIER",
      "nameNl": "FIRMIN LECHARLIER",
      "latitude": 50.871032,
      "longitude": 4.330173,
      "lines": [
        "14"
      ],
      "physicalStopIds": [
        "1766",
        "1782"
      ],
      "physicalCount": 2
    },
    {
      "id": 265,
      "nameFr": "BIGARREAUX",
      "nameNl": "VLEESKERSEN",
      "latitude": 50.784136,
      "longitude": 4.332847,
      "lines": [
        "43"
      ],
      "physicalStopIds": [
        "1959",
        "1931"
      ],
      "physicalCount": 2
    },
    {
      "id": 266,
      "nameFr": "FLAGEY",
      "nameNl": "FLAGEY",
      "latitude": 50.827643,
      "longitude": 4.371933,
      "lines": [
        "38",
        "59",
        "60",
        "71",
        "81"
      ],
      "physicalStopIds": [
        "3508F",
        "3122",
        "3573",
        "3372",
        "3507F",
        "9952G",
        "3519",
        "1280B",
        "3572F",
        "3572",
        "6112"
      ],
      "physicalCount": 11
    },
    {
      "id": 267,
      "nameFr": "BERKENDAEL",
      "nameNl": "BERKENDAAL",
      "latitude": 50.817868,
      "longitude": 4.346104,
      "lines": [
        "4",
        "10"
      ],
      "physicalStopIds": [
        "6209",
        "6253"
      ],
      "physicalCount": 2
    },
    {
      "id": 268,
      "nameFr": "DESTOUVELLES",
      "nameNl": "DESTOUVELLES",
      "latitude": 50.866328,
      "longitude": 4.358422,
      "lines": [
        "58",
        "88"
      ],
      "physicalStopIds": [
        "2089",
        "2088"
      ],
      "physicalCount": 2
    },
    {
      "id": 269,
      "nameFr": "LEPOUTRE",
      "nameNl": "LEPOUTRE",
      "latitude": 50.819919,
      "longitude": 4.359279,
      "lines": [
        "60"
      ],
      "physicalStopIds": [
        "6408",
        "6406"
      ],
      "physicalCount": 2
    },
    {
      "id": 270,
      "nameFr": "BRAVES",
      "nameNl": "DAPPEREN",
      "latitude": 50.773466,
      "longitude": 4.33595,
      "lines": [
        "43"
      ],
      "physicalStopIds": [
        "1935",
        "1955"
      ],
      "physicalCount": 2
    },
    {
      "id": 271,
      "nameFr": "PTE D'ANDERLECHT",
      "nameNl": "ANDERLECHTSEPOORT",
      "latitude": 50.8449,
      "longitude": 4.338807,
      "lines": [
        "46",
        "51",
        "82"
      ],
      "physicalStopIds": [
        "2403",
        "6659F",
        "7733",
        "2219",
        "2405",
        "2401F"
      ],
      "physicalCount": 6
    },
    {
      "id": 272,
      "nameFr": "CLEMENCEAU",
      "nameNl": "CLEMENCEAU",
      "latitude": 50.841286,
      "longitude": 4.33066,
      "lines": [
        "2",
        "6",
        "46"
      ],
      "physicalStopIds": [
        "8361",
        "8362",
        "2216",
        "2261"
      ],
      "physicalCount": 4
    },
    {
      "id": 273,
      "nameFr": "CLEMENCEAU",
      "nameNl": "CLEMENCEAU",
      "latitude": 50.842425,
      "longitude": 4.33117,
      "lines": [],
      "physicalStopIds": [
        "3047"
      ],
      "physicalCount": 1
    },
    {
      "id": 274,
      "nameFr": "LA ROUE",
      "nameNl": "HET RAD",
      "latitude": 50.820944,
      "longitude": 4.293782,
      "lines": [
        "5"
      ],
      "physicalStopIds": [
        "7757",
        "7755",
        "8672",
        "8671"
      ],
      "physicalCount": 4
    },
    {
      "id": 275,
      "nameFr": "KURTH",
      "nameNl": "KURTH",
      "latitude": 50.868864,
      "longitude": 4.395936,
      "lines": [
        "66"
      ],
      "physicalStopIds": [
        "3449",
        "3411"
      ],
      "physicalCount": 2
    },
    {
      "id": 276,
      "nameFr": "EMPAIN",
      "nameNl": "EMPAIN",
      "latitude": 50.824483,
      "longitude": 4.431685,
      "lines": [
        "8"
      ],
      "physicalStopIds": [
        "5271F",
        "5282F"
      ],
      "physicalCount": 2
    },
    {
      "id": 277,
      "nameFr": "ANDREE DE JONGH",
      "nameNl": "ANDREE DE JONGH",
      "latitude": 50.87096,
      "longitude": 4.349112,
      "lines": [
        "46",
        "86",
        "88"
      ],
      "physicalStopIds": [
        "3083",
        "3082"
      ],
      "physicalCount": 2
    },
    {
      "id": 278,
      "nameFr": "ROCHEFORT",
      "nameNl": "ROCHEFORT",
      "latitude": 50.82444,
      "longitude": 4.335362,
      "lines": [
        "48"
      ],
      "physicalStopIds": [
        "2767",
        "1730",
        "2772",
        "1717",
        "5115"
      ],
      "physicalCount": 5
    },
    {
      "id": 279,
      "nameFr": "HERNALSTEEN",
      "nameNl": "HERNALSTEEN",
      "latitude": 50.840097,
      "longitude": 4.488848,
      "lines": [
        "76"
      ],
      "physicalStopIds": [
        "1656B",
        "1620B"
      ],
      "physicalCount": 2
    },
    {
      "id": 280,
      "nameFr": "RITTWEGER",
      "nameNl": "RITTWEGER",
      "latitude": 50.797917,
      "longitude": 4.336223,
      "lines": [
        "18",
        "43"
      ],
      "physicalStopIds": [
        "1926G",
        "1964",
        "1964F",
        "1926B"
      ],
      "physicalCount": 4
    },
    {
      "id": 281,
      "nameFr": "VANDERVELDE",
      "nameNl": "VANDERVELDE",
      "latitude": 50.847465,
      "longitude": 4.447502,
      "lines": [
        "1"
      ],
      "physicalStopIds": [
        "1585",
        "8132",
        "1640B",
        "8131"
      ],
      "physicalCount": 4
    },
    {
      "id": 282,
      "nameFr": "VAN BEETHOVEN",
      "nameNl": "VAN BEETHOVEN",
      "latitude": 50.828818,
      "longitude": 4.293191,
      "lines": [
        "75",
        "T81"
      ],
      "physicalStopIds": [
        "1490",
        "6792",
        "1495",
        "6799"
      ],
      "physicalCount": 4
    },
    {
      "id": 283,
      "nameFr": "HERMES",
      "nameNl": "HERMES",
      "latitude": 50.828591,
      "longitude": 4.316169,
      "lines": [
        "73",
        "78"
      ],
      "physicalStopIds": [
        "1666",
        "1665"
      ],
      "physicalCount": 2
    },
    {
      "id": 284,
      "nameFr": "TIR AUX PIGEONS",
      "nameNl": "DUIVENSCHIETING",
      "latitude": 50.819836,
      "longitude": 4.467558,
      "lines": [
        "44"
      ],
      "physicalStopIds": [
        "5656",
        "5604"
      ],
      "physicalCount": 2
    },
    {
      "id": 285,
      "nameFr": "SAINT-GUIDON",
      "nameNl": "SINT-GUIDO",
      "latitude": 50.834758,
      "longitude": 4.305588,
      "lines": [
        "5",
        "46",
        "49",
        "T81"
      ],
      "physicalStopIds": [
        "8702",
        "3369",
        "3368",
        "8701"
      ],
      "physicalCount": 4
    },
    {
      "id": 286,
      "nameFr": "HYMANS",
      "nameNl": "HYMANS",
      "latitude": 50.846804,
      "longitude": 4.430868,
      "lines": [
        "29"
      ],
      "physicalStopIds": [
        "1578",
        "1529"
      ],
      "physicalCount": 2
    },
    {
      "id": 287,
      "nameFr": "JULES CESAR",
      "nameNl": "JULIUS CAESAR",
      "latitude": 50.834541,
      "longitude": 4.42071,
      "lines": [
        "36",
        "39",
        "44"
      ],
      "physicalStopIds": [
        "1545",
        "5503",
        "1860",
        "5560",
        "1874"
      ],
      "physicalCount": 5
    },
    {
      "id": 288,
      "nameFr": "TER MEEREN",
      "nameNl": "TER MEEREN",
      "latitude": 50.845141,
      "longitude": 4.499812,
      "lines": [
        "39"
      ],
      "physicalStopIds": [
        "5521",
        "5519"
      ],
      "physicalCount": 2
    },
    {
      "id": 289,
      "nameFr": "JANSON",
      "nameNl": "JANSON",
      "latitude": 50.82585,
      "longitude": 4.354856,
      "lines": [
        "92",
        "96"
      ],
      "physicalStopIds": [
        "7552",
        "6430",
        "6428F",
        "2689",
        "6428",
        "2646",
        "6430F"
      ],
      "physicalCount": 7
    },
    {
      "id": 290,
      "nameFr": "ARCHIDUCS",
      "nameNl": "AARTSHERTOGEN",
      "latitude": 50.809872,
      "longitude": 4.416492,
      "lines": [
        "41"
      ],
      "physicalStopIds": [
        "4403",
        "4454"
      ],
      "physicalCount": 2
    },
    {
      "id": 291,
      "nameFr": "SAINT-LAMBERT",
      "nameNl": "SINT-LAMBERTUS",
      "latitude": 50.890549,
      "longitude": 4.345183,
      "lines": [
        "7",
        "19",
        "62"
      ],
      "physicalStopIds": [
        "2635F",
        "2636F",
        "2637F"
      ],
      "physicalCount": 3
    },
    {
      "id": 292,
      "nameFr": "PAIX",
      "nameNl": "VREDE",
      "latitude": 50.876897,
      "longitude": 4.402065,
      "lines": [
        "45",
        "64"
      ],
      "physicalStopIds": [
        "2982B",
        "2910"
      ],
      "physicalCount": 2
    },
    {
      "id": 293,
      "nameFr": "OBUS",
      "nameNl": "OBUS",
      "latitude": 50.84737,
      "longitude": 4.304109,
      "lines": [
        "89"
      ],
      "physicalStopIds": [
        "2768",
        "2754"
      ],
      "physicalCount": 2
    },
    {
      "id": 294,
      "nameFr": "LAEKEBEEK",
      "nameNl": "LAEKEBEEK",
      "latitude": 50.774067,
      "longitude": 4.281363,
      "lines": [
        "50"
      ],
      "physicalStopIds": [
        "9681",
        "9661"
      ],
      "physicalCount": 2
    },
    {
      "id": 295,
      "nameFr": "MICHIELS",
      "nameNl": "MICHIELS",
      "latitude": 50.814776,
      "longitude": 4.403204,
      "lines": [
        "17"
      ],
      "physicalStopIds": [
        "4298"
      ],
      "physicalCount": 1
    },
    {
      "id": 296,
      "nameFr": "AVENUE DU ROI",
      "nameNl": "KONINGSLAAN",
      "latitude": 50.831537,
      "longitude": 4.332952,
      "lines": [
        "48",
        "49",
        "50",
        "82",
        "96"
      ],
      "physicalStopIds": [
        "2670",
        "2777",
        "2544F",
        "2775",
        "7613",
        "2544",
        "2670F"
      ],
      "physicalCount": 7
    },
    {
      "id": 297,
      "nameFr": "ROND-PT SOUVERAIN",
      "nameNl": "VORSTRONDPUNT",
      "latitude": 50.818888,
      "longitude": 4.428183,
      "lines": [
        "8"
      ],
      "physicalStopIds": [
        "5283F",
        "2009",
        "2058",
        "5270F"
      ],
      "physicalCount": 4
    },
    {
      "id": 298,
      "nameFr": "MACHELEN",
      "nameNl": "MACHELEN",
      "latitude": 50.912776,
      "longitude": 4.432925,
      "lines": [
        "65"
      ],
      "physicalStopIds": [
        "3042"
      ],
      "physicalCount": 1
    },
    {
      "id": 299,
      "nameFr": "OBSERVATOIRE",
      "nameNl": "STERRENWACHT",
      "latitude": 50.799715,
      "longitude": 4.358475,
      "lines": [
        "37",
        "60"
      ],
      "physicalStopIds": [
        "4857B",
        "4854C"
      ],
      "physicalCount": 2
    },
    {
      "id": 300,
      "nameFr": "ALBERT II",
      "nameNl": "ALBERT II",
      "latitude": 50.857532,
      "longitude": 4.356298,
      "lines": [
        "58"
      ],
      "physicalStopIds": [
        "3244"
      ],
      "physicalCount": 1
    },
    {
      "id": 301,
      "nameFr": "MELARD",
      "nameNl": "MELARD",
      "latitude": 50.84218,
      "longitude": 4.427887,
      "lines": [
        "28"
      ],
      "physicalStopIds": [
        "1456",
        "1410"
      ],
      "physicalCount": 2
    },
    {
      "id": 302,
      "nameFr": "ARTEMIS",
      "nameNl": "ARTEMIS",
      "latitude": 50.861939,
      "longitude": 4.416049,
      "lines": [
        "66",
        "80"
      ],
      "physicalStopIds": [
        "3273",
        "3210B"
      ],
      "physicalCount": 2
    },
    {
      "id": 303,
      "nameFr": "SUEDE",
      "nameNl": "ZWEDEN",
      "latitude": 50.834164,
      "longitude": 4.335971,
      "lines": [
        "48",
        "49",
        "50",
        "81",
        "82",
        "96"
      ],
      "physicalStopIds": [
        "2539F",
        "2671F",
        "2671",
        "2539"
      ],
      "physicalCount": 4
    },
    {
      "id": 304,
      "nameFr": "SOBIESKI",
      "nameNl": "SOBIESKI",
      "latitude": 50.884574,
      "longitude": 4.343898,
      "lines": [],
      "physicalStopIds": [
        "4274",
        "4232"
      ],
      "physicalCount": 2
    },
    {
      "id": 305,
      "nameFr": "SABCA",
      "nameNl": "SABCA",
      "latitude": 50.881856,
      "longitude": 4.417041,
      "lines": [
        "21"
      ],
      "physicalStopIds": [
        "3279",
        "3204"
      ],
      "physicalCount": 2
    },
    {
      "id": 306,
      "nameFr": "ORBAN",
      "nameNl": "ORBAN",
      "latitude": 50.827146,
      "longitude": 4.327331,
      "lines": [
        "49",
        "50",
        "82"
      ],
      "physicalStopIds": [
        "2553",
        "5718",
        "5757F",
        "5757"
      ],
      "physicalCount": 4
    },
    {
      "id": 307,
      "nameFr": "BRABANCONNE",
      "nameNl": "BRABANCONNE",
      "latitude": 50.851831,
      "longitude": 4.387401,
      "lines": [
        "28",
        "56",
        "61",
        "64"
      ],
      "physicalStopIds": [
        "6191",
        "6190",
        "2919"
      ],
      "physicalCount": 3
    },
    {
      "id": 308,
      "nameFr": "CROSSING",
      "nameNl": "CROSSING",
      "latitude": 50.864902,
      "longitude": 4.381336,
      "lines": [
        "56",
        "66"
      ],
      "physicalStopIds": [
        "2102",
        "3410",
        "3412"
      ],
      "physicalCount": 3
    },
    {
      "id": 309,
      "nameFr": "HOP. DES ENFANTS",
      "nameNl": "KINDERZIEKENHUIS",
      "latitude": 50.888245,
      "longitude": 4.327727,
      "lines": [
        "83",
        "88"
      ],
      "physicalStopIds": [
        "1467",
        "1466"
      ],
      "physicalCount": 2
    },
    {
      "id": 310,
      "nameFr": "TIRCHER",
      "nameNl": "TIRCHER",
      "latitude": 50.892462,
      "longitude": 4.3237,
      "lines": [
        "83"
      ],
      "physicalStopIds": [
        "2842",
        "4206B"
      ],
      "physicalCount": 2
    },
    {
      "id": 311,
      "nameFr": "TRIANGLE",
      "nameNl": "DRIEHOEK",
      "latitude": 50.849984,
      "longitude": 4.334705,
      "lines": [
        "82",
        "89"
      ],
      "physicalStopIds": [
        "6648F",
        "1600",
        "3389",
        "3228F",
        "3228",
        "1603"
      ],
      "physicalCount": 6
    },
    {
      "id": 312,
      "nameFr": "CONSEIL",
      "nameNl": "RAAD",
      "latitude": 50.839229,
      "longitude": 4.32968,
      "lines": [
        "T81"
      ],
      "physicalStopIds": [
        "6860B",
        "6808B"
      ],
      "physicalCount": 2
    },
    {
      "id": 313,
      "nameFr": "VERHEYLEWEGHEN",
      "nameNl": "VERHEYLEWEGHEN",
      "latitude": 50.8482,
      "longitude": 4.424823,
      "lines": [
        "29",
        "61"
      ],
      "physicalStopIds": [
        "3919",
        "1557",
        "1522"
      ],
      "physicalCount": 3
    },
    {
      "id": 314,
      "nameFr": "GARE DE SAINT-JOB",
      "nameNl": "STATION SINT-JOB",
      "latitude": 50.79428,
      "longitude": 4.362287,
      "lines": [
        "37",
        "60",
        "92"
      ],
      "physicalStopIds": [
        "5030F",
        "1623",
        "1634",
        "5055F"
      ],
      "physicalCount": 4
    },
    {
      "id": 315,
      "nameFr": "VICTOR ALLARD",
      "nameNl": "VICTOR ALLARD",
      "latitude": 50.800989,
      "longitude": 4.329699,
      "lines": [],
      "physicalStopIds": [
        "1447"
      ],
      "physicalCount": 1
    },
    {
      "id": 316,
      "nameFr": "VICTOR ALLARD",
      "nameNl": "VICTOR ALLARD",
      "latitude": 50.800727,
      "longitude": 4.327285,
      "lines": [
        "48",
        "74"
      ],
      "physicalStopIds": [
        "2452"
      ],
      "physicalCount": 1
    },
    {
      "id": 317,
      "nameFr": "DEFACQZ",
      "nameNl": "DEFACQZ",
      "latitude": 50.8289,
      "longitude": 4.362122,
      "lines": [
        "8",
        "93"
      ],
      "physicalStopIds": [
        "7520",
        "5406",
        "1702",
        "5469"
      ],
      "physicalCount": 4
    },
    {
      "id": 318,
      "nameFr": "BUISSONNETS",
      "nameNl": "BRAAMBOSJES",
      "latitude": 50.891412,
      "longitude": 4.368599,
      "lines": [
        "7",
        "35"
      ],
      "physicalStopIds": [
        "5772",
        "5705"
      ],
      "physicalCount": 2
    },
    {
      "id": 319,
      "nameFr": "HEEMBEEK",
      "nameNl": "HEEMBEEK",
      "latitude": 50.887196,
      "longitude": 4.377197,
      "lines": [
        "7",
        "10",
        "35",
        "47",
        "56"
      ],
      "physicalStopIds": [
        "1062",
        "5715F",
        "1061",
        "1060",
        "5716F",
        "5717F"
      ],
      "physicalCount": 6
    },
    {
      "id": 320,
      "nameFr": "GINETTE JAVAUX",
      "nameNl": "GINETTE JAVAUX",
      "latitude": 50.818816,
      "longitude": 4.40813,
      "lines": [
        "72"
      ],
      "physicalStopIds": [
        "3447",
        "2197"
      ],
      "physicalCount": 2
    },