[
  {
    "number": 231,
    "name": "231 - KERSBEEK",
    "address": "KERSBEEK - AV KERSBEEK 107 / KERSBEEKLAAN 107",
    "position": {
      "lat": 50.805801,
      "lng": 4.3194
    },
    "status": "OPEN",
    "bike_stands": 19,
    "available_bikes": 8,
    "available_bike_stands": 11,
    "banking": false,
    "last_update": 1777412603000
  },
  {
    "number": 122,
    "name": "122 - ETTERBEEK GARE / ETTERBEEK STATION",
    "address": "Bd Général Jacques / Generaal Jacqueslaan",
    "position": {
      "lat": 50.822207,
      "lng": 4.389325
    },
    "status": "OPEN",
    "bike_stands": 30,
    "available_bikes": 2,
    "available_bike_stands": 28,
    "banking": false,
    "last_update": 1777412777000
  },
  {
    "number": 1,
    "name": "001 - LEOPOLD II",
    "address": "LEOPOLD II - AVENUE DE TERVUREN FACE / TERVURENLAAN VOOR 218",
    "position": {
      "lat": 50.836304,
      "lng": 4.41505
    },
    "status": "OPEN",
    "bike_stands": 20,
    "available_bikes": 4,
    "available_bike_stands": 16,
    "banking": false,
    "last_update": 1777412950000
  },
  {
    "number": 212,
    "name": "212 - THEO LAMBERT",
    "address": "THEO LAMBERT - BD THEO LAMBERT (FACE 66) / THEO LAMBERT LAAN (TEGENOVER 66)",
    "position": {
      "lat": 50.82701,
      "lng": 4.292098
    },
    "status": "OPEN",
    "bike_stands": 25,
    "available_bikes": 11,
    "available_bike_stands": 14,
    "banking": false,
    "last_update": 1777412594000
  },
  {
    "number": 333,
    "name": "333 - TRACTEBEL",
    "address": "TRACTEBEL - AV MARCEL THIRY FACE AU N°93",
    "position": {
      "lat": 50.856582,
      "lng": 4.430988
    },
    "status": "OPEN",
    "bike_stands": 25,
    "available_bikes": 17,
    "available_bike_stands": 8,
    "banking": false,
    "last_update": 1777412641000
  },
  {
    "number": 184,
    "name": "184 - PHILIPPE BAUCQ",
    "address": "Rue Philippe Baucq 36 / Philippe Baucqstraat 36",
    "position": {
      "lat": 50.831592,
      "lng": 4.385786
    },
    "status": "OPEN",
    "bike_stands": 25,
    "available_bikes": 8,
    "available_bike_stands": 17,
    "banking": false,
    "last_update": 1777412821000
  },
  {
    "number": 360,
    "name": "360 - STOCKEL / STOKKEL",
    "address": "Av. d'Ophem 1 / Oppemlaan 1",
    "position": {
      "lat": 50.841609,
      "lng": 4.465632
    },
    "status": "OPEN",
    "bike_stands": 24,
    "available_bikes": 8,
    "available_bike_stands": 16,
    "banking": false,
    "last_update": 1777412911000
  },
  {
    "number": 186,
    "name": "186 - GENOT",
    "address": "Chau. de Gand / Gentsesteenweg 1033",
    "position": {
      "lat": 50.861783,
      "lng": 4.302607
    },
    "status": "OPEN",
    "bike_stands": 17,
    "available_bikes": 10,
    "available_bike_stands": 7,
    "banking": false,
    "last_update": 1777412637000
  },
  {
    "number": 167,
    "name": "167 - CHARLES V / KAREL V",
    "address": "Av. Charles Quint / Keizer Karellaan 129",
    "position": {
      "lat": 50.869032,
      "lng": 4.309731
    },
    "status": "OPEN",
    "bike_stands": 22,
    "available_bikes": 8,
    "available_bike_stands": 14,
    "banking": false,
    "last_update": 1777412646000
  },
  {
    "number": 305,
    "name": "305 - PETER BENOIT",
    "address": "PETER BENOIT - PLACE PETER BENOIT PLAATS 2-4",
    "position": {
      "lat": 50.895592,
      "lng": 4.387965
    },
    "status": "OPEN",
    "bike_stands": 25,
    "available_bikes": 7,
    "available_bike_stands": 18,
    "banking": false,
    "last_update": 1777412578000
  },
  {
    "number": 50,
    "name": "050 - RIBAUCOURT",
    "address": "RIBAUCOURT - BLD LEOPOLD II / LEOPOLD II-LAAN 121-123",
    "position": {
      "lat": 50.860862,
      "lng": 4.339182
    },
    "status": "OPEN",
    "bike_stands": 25,
    "available_bikes": 8,
    "available_bike_stands": 17,
    "banking": false,
    "last_update": 1777412641000
  },
  {
    "number": 93,
    "name": "093 - CLOVIS",
    "address": "CLOVIS - CHAUSSEE DE LOUVAIN - LEUVENSESTEENWEG 260-264",
    "position": {
      "lat": 50.850333,
      "lng": 4.380461
    },
    "status": "OPEN",
    "bike_stands": 19,
    "available_bikes": 14,
    "available_bike_stands": 5,
    "banking": false,
    "last_update": 1777412624000
  },
  {
    "number": 274,
    "name": "274 - CORHAY",
    "address": "Chau. de Gand 585 / Gentsesteenweg 585",
    "position": {
      "lat": 50.860027,
      "lng": 4.307686
    },
    "status": "OPEN",
    "bike_stands": 25,
    "available_bikes": 11,
    "available_bike_stands": 14,
    "banking": false,
    "last_update": 1777412587000
  },
  {
    "number": 98,
    "name": "098 - CIMETIERE / KERKHOF",
    "address": "CIMETIERE / KERKHOF - Bd Mettewie 40 x Chau. de Gand / Mettewielaan 40 x Gentsesteenweg",
    "position": {
      "lat": 50.85904,
      "lng": 4.312402
    },
    "status": "OPEN",
    "bike_stands": 20,
    "available_bikes": 12,
    "available_bike_stands": 8,
    "banking": false,
    "last_update": 1777412884000
  },
  {
    "number": 260,
    "name": "260 - TRITON",
    "address": "TRITON - AVENUE DES ANCIENS COMBATTANTS - PISCINE / OUD-STRIJDERSLAAN - ZWEMBAD",
    "position": {
      "lat": 50.86702,
      "lng": 4.406995
    },
    "status": "OPEN",
    "bike_stands": 25,
    "available_bikes": 12,
    "available_bike_stands": 12,
    "banking": false,
    "last_update": 1777413049000
  },
  {
    "number": 38,
    "name": "038 - JEU DE BALLE / VOSSENPLEIN",
    "address": "JEU DE BALLE/VOSSENPLEIN - RUE BLAES/BLAESSTRAAT 135-141",
    "position": {
      "lat": 50.837912,
      "lng": 4.347421
    },
    "status": "OPEN",
    "bike_stands": 19,
    "available_bikes": 4,
    "available_bike_stands": 15,
    "banking": false,
    "last_update": 1777412682000
  },
  {
    "number": 57,
    "name": "057 - MADOU",
    "address": "MADOU - Av. des Arts / Kunstlaan 1 - 2",
    "position": {
      "lat": 50.848712,
      "lng": 4.369509
    },
    "status": "OPEN",
    "bike_stands": 24,
    "available_bikes": 1,
    "available_bike_stands": 23,
    "banking": false,
    "last_update": 1777412662000
  },
  {
    "number": 351,
    "name": "351 - ULB",
    "address": "Av. Paul Héger 42 x Av. Adolphe Buyl 140 / Paul Hégerlaan 42 x Adolphe Buyllaan 140",
    "position": {
      "lat": 50.813945,
      "lng": 4.384019
    },
    "status": "OPEN",
    "bike_stands": 25,
    "available_bikes": 10,
    "available_bike_stands": 15,
    "banking": false,
    "last_update": 1777412658000
  },
  {
    "number": 228,
    "name": "228 - ALTITUDE CENT / HOOGTE HONDERD",
    "address": "ALTITUDE CENT / HOOGTE HONDERD - Pl. de l'Altitude Cent face n°31 / Hoogte Honderdplein tegenover n°31",
    "position": {
      "lat": 50.816525,
      "lng": 4.336212
    },
    "status": "OPEN",
    "bike_stands": 25,
    "available_bikes": 6,
    "available_bike_stands": 17,
    "banking": false,
    "last_update": 1777412765000
  },
  {
    "number": 206,
    "name": "206 - SAINT-GUIDON / SINT-GUIDO",
    "address": "Cours Saint-Guidon 7 / Sint-Guidocorso 7",
    "position": {
      "lat": 50.834929,
      "lng": 4.305659
    },
    "status": "OPEN",
    "bike_stands": 25,
    "available_bikes": 8,
    "available_bike_stands": 16,
    "banking": false,
    "last_update": 1777412751000
  },
  {
    "number": 178,
    "name": "178 - DIAMANT",
    "address": "Rue Colonel Bourg x Bd Auguste Reyers / Kolonel Bourgstraat x Auguste Reyerslaan",
    "position": {
      "lat": 50.85043,
      "lng": 4.402169
    },
    "status": "OPEN",
    "bike_stands": 22,
    "available_bikes": 4,
    "available_bike_stands": 18,
    "banking": false,
    "last_update": 1777412608000
  },
  {
    "number": 245,
    "name": "245 - HAMOIR",
    "address": "Chau. de Waterloo 1040 / Waterloosesteenweg 1040",
    "position": {
      "lat": 50.798988,
      "lng": 4.375581
    },
    "status": "OPEN",
    "bike_stands": 25,
    "available_bikes": 6,
    "available_bike_stands": 19,
    "banking": false,
    "last_update": 1777412947000
  },
  {
    "number": 99,
    "name": "099 - JUBILE / JUBELFEEST",
    "address": "Bd du Jubilé / Jubelfeestlaan 79",
    "position": {
      "lat": 50.864992,
      "lng": 4.338431
    },
    "status": "OPEN",
    "bike_stands": 25,
    "available_bikes": 19,
    "available_bike_stands": 5,
    "banking": false,
    "last_update": 1777412622000
  },
  {
    "number": 358,
    "name": "358 - MADOUX",
    "address": "MADOUX - AVENUE DE TERVUREN FACE 403",
    "position": {
      "lat": 50.82708,
      "lng": 4.444795
    },
    "status": "OPEN",
    "bike_stands": 25,
    "available_bikes": 11,
    "available_bike_stands": 14,
    "banking": false,
    "last_update": 1777412578000
  },
  {
    "number": 242,
    "name": "242 - MAISON COMMUNALE UCCLE / GEMEENTEHUIS UKKEL",
    "address": "Pl. Jean Vander Elst 23 / Jean Vander Elstplein 23",
    "position": {
      "lat": 50.803791,
      "lng": 4.333321
    },
    "status": "OPEN",
    "bike_stands": 25,
    "available_bikes": 10,
    "available_bike_stands": 13,
    "banking": false,
    "last_update": 1777412856000
  },
  {
    "number": 200,
    "name": "200 - VETERANS COLONIAUX / KOLONIALE VETERANEN",
    "address": "Square des Vétérans Coloniaux / Square der Koloniale Veteranen 8",
    "position": {
      "lat": 50.844006,
      "lng": 4.313818
    },
    "status": "OPEN",
    "bike_stands": 25,
    "available_bikes": 8,
    "available_bike_stands": 16,
    "banking": false,
    "last_update": 1777412595000
  },
  {
    "number": 181,
    "name": "181 - LOUIS TITZ",
    "address": "LOUIS TITZ - AVENUE DE LA CHASSE/ JACHTLAAN 182 - 184",
    "position": {
      "lat": 50.835723,
      "lng": 4.394395
    },
    "status": "OPEN",
    "bike_stands": 25,
    "available_bikes": 12,
    "available_bike_stands": 12,
    "banking": false,
    "last_update": 1777412654000
  },
  {
    "number": 158,
    "name": "158 - VAN YSENDYCK",
    "address": "Av. Voltaire / Voltairelaan 6",
    "position": {
      "lat": 50.867955,
      "lng": 4.379577
    },
    "status": "OPEN",
    "bike_stands": 24,
    "available_bikes": 16,
    "available_bike_stands": 8,
    "banking": false,
    "last_update": 1777412922000
  },
  {
    "number": 165,
    "name": "165 - CIMETIERE DE JETTE / KERKHOF VAN JETTE",
    "address": "Bd de Smet de Naeyer / De Smet de Naeyerlaan 322",
    "position": {
      "lat": 50.879668,
      "lng": 4.33425
    },
    "status": "OPEN",
    "bike_stands": 20,
    "available_bikes": 9,
    "available_bike_stands": 11,
    "banking": false,
    "last_update": 1777412786000
  },
  {
    "number": 161,
    "name": "161 - DEMOLDER",
    "address": "DEMOLDER - AVENUE EUGENE DEMOLDER / EUGENE DEMOLDERLAAN 68",
    "position": {
      "lat": 50.872592,
      "lng": 4.379886
    },
    "status": "OPEN",
    "bike_stands": 25,
    "available_bikes": 20,
    "available_bike_stands": 4,
    "banking": false,
    "last_update": 1777412598000
  },
  {
    "number": 347,
    "name": "347 - ERASME / ERASMUS",
    "address": "Route de Lennik 808 / Lenniksebaan 808",
    "position": {
      "lat": 50.8149606388997,
      "lng": 4.26542850805528
    },
    "status": "OPEN",
    "bike_stands": 25,
    "available_bikes": 13,
    "available_bike_stands": 11,
    "banking": false,
    "last_update": 1777412700000
  },
  {
    "number": 283,
    "name": "283 - PISCINE / ZWEMBAD",
    "address": "Rue de Lombartzyde 118 / Lombartsijdestraat 118",
    "position": {
      "lat": 50.893166,
      "lng": 4.376996
    },
    "status": "OPEN",
    "bike_stands": 14,
    "available_bikes": 6,
    "available_bike_stands": 7,
    "banking": false,
    "last_update": 1777412648000
  },
  {
    "number": 125,
    "name": "125 - GEORGES BRUGMANN",
    "address": "GEORGES BRUGMANN - PLACE GEORGES BRUGMANN/GEORGES BRUGMANNPLEIN N° 10 - 11",
    "position": {
      "lat": 50.817392,
      "lng": 4.354105
    },
    "status": "OPEN",
    "bike_stands": 25,
    "available_bikes": 17,
    "available_bike_stands": 5,
    "banking": false,
    "last_update": 1777412678000
  },
  {
    "number": 246,
    "name": "246 - GATTI DE GAMOND",
    "address": "GATTI DE GAMMOND - RUE DE STALLE PROLONGEE/STALLE STRAAT 160",
    "position": {
      "lat": 50.796471,
      "lng": 4.328415
    },
    "status": "OPEN",
    "bike_stands": 20,
    "available_bikes": 11,
    "available_bike_stands": 9,
    "banking": false,
    "last_update": 1777412591000
  },
  {
    "number": 140,
    "name": "140 - AZALEES / AZALEA",
    "address": "Av. Paul Deschanel / Paul Deschanellaan 6",
    "position": {
      "lat": 50.862704,
      "lng": 4.381289
    },
    "status": "OPEN",
    "bike_stands": 25,
    "available_bikes": 24,
    "available_bike_stands": 1,
    "banking": false,
    "last_update": 1777413001000
  },
  {
    "number": 335,
    "name": "335 - THIRY",
    "address": "Bd de la Woluwe / Woluwelaan 100",
    "position": {
      "lat": 50.854231,
      "lng": 4.444034
    },
    "status": "OPEN",
    "bike_stands": 20,
    "available_bikes": 11,
    "available_bike_stands": 9,
    "banking": false,
    "last_update": 1777412664000
  },
  {
    "number": 279,
    "name": "279 - HOUBA-BRUGMANN",
    "address": "Av. Houba de Strooper 141 / Houba de Strooperlaan 141",
    "position": {
      "lat": 50.890231,
      "lng": 4.336993
    },
    "status": "OPEN",
    "bike_stands": 25,
    "available_bikes": 16,
    "available_bike_stands": 9,
    "banking": false,
    "last_update": 1777412644000
  },
  {
    "number": 12,
    "name": "012 - TRONE / TROON",
    "address": "Av Marnix / Marnixlaan 30",
    "position": {
      "lat": 50.840458,
      "lng": 4.365981
    },
    "status": "OPEN",
    "bike_stands": 32,
    "available_bikes": 9,
    "available_bike_stands": 22,
    "banking": false,
    "last_update": 1777412781000
  },
  {
    "number": 18,
    "name": "018 - GUTENBERG",
    "address": "GUTENBERG - Square Gutenberg (face n° 5) / Gutenbergsquare (tegenover n° 5)",
    "position": {
      "lat": 50.84771,
      "lng": 4.377552
    },
    "status": "OPEN",
    "bike_stands": 25,
    "available_bikes": 20,
    "available_bike_stands": 4,
    "banking": false,
    "last_update": 1777412708000
  },
  {
    "number": 177,
    "name": "177 - CHASSEURS ARDENNAIS / ARDENSE JAGERS",
    "address": "Rue du Noyer / Notelaarstraat 85",
    "position": {
      "lat": 50.849409,
      "lng": 4.389263
    },
    "status": "OPEN",
    "bike_stands": 25,
    "available_bikes": 8,
    "available_bike_stands": 17,
    "banking": false,
    "last_update": 1777412721000
  },
  {
    "number": 175,
    "name": "175 - BEEKKANT",
    "address": "BEEKKANT - BOULEVARD EDMOND MACHTENS / EDMOND MACHTENSLAAN",
    "position": {
      "lat": 50.854166,
      "lng": 4.322948
    },
    "status": "OPEN",
    "bike_stands": 25,
    "available_bikes": 11,
    "available_bike_stands": 14,
    "banking": false,
    "last_update": 1777412637000
  },
  {
    "number": 308,
    "name": "308 - TIVOLI",
    "address": "Rue de Molenbeek x Rue de Wautier / Molenbeeksestraat x De Wautierstraat",
    "position": {
      "lat": 50.872276,
      "lng": 4.351953
    },
    "status": "OPEN",
    "bike_stands": 19,
    "available_bikes": 7,
    "available_bike_stands": 11,
    "banking": false,
    "last_update": 1777412927000
  },
  {
    "number": 350,
    "name": "350 - VERHEYLEWEGHEN",
    "address": "Pl. Verheyleweghen / Verheyleweghenplein 34",
    "position": {
      "lat": 50.848184,
      "lng": 4.425621
    },
    "status": "OPEN",
    "bike_stands": 22,
    "available_bikes": 15,
    "available_bike_stands": 6,
    "banking": false,
    "last_update": 1777413030000
  },
  {
    "number": 7,
    "name": "007 - PARC / PARK",
    "address": "PARC/PARK - RUE ROYALE  (FACE N°66-68)/KONINGSSTRAAT (TEGENOVER N°66-68)",
    "position": {
      "lat": 50.846319,
      "lng": 4.362244
    },
    "status": "OPEN",
    "bike_stands": 25,
    "available_bikes": 10,
    "available_bike_stands": 15,
    "banking": false,
    "last_update": 1777412729000
  },
  {
    "number": 321,
    "name": "321 - SACRE-CŒUR DE JETTE / HEILIG HART VAN JETTE",
    "address": "Av. du Sacré-Cœur 8 / Heilig-Hartlaan 8",
    "position": {
      "lat": 50.884229,
      "lng": 4.330276
    },
    "status": "OPEN",
    "bike_stands": 19,
    "available_bikes": 13,
    "available_bike_stands": 6,
    "banking": false,
    "last_update": 1777412641000
  },
  {
    "number": 330,
    "name": "330 - VANDERVELDE",
    "address": "VANDERVELDE - AVENUE EMILE VANDERVELDE 90",
    "position": {
      "lat": 50.847546,
      "lng": 4.450015
    },
    "status": "OPEN",
    "bike_stands": 25,
    "available_bikes": 11,
    "available_bike_stands": 14,
    "banking": false,
    "last_update": 1777412582000
  },
  {
    "number": 193,
    "name": "193 - GARE DE L'OUEST / WESTSTATION",
    "address": "Chaussée de Ninove / Ninoofsesteenweg 203",
    "position": {
      "lat": 50.848866,
      "lng": 4.320628
    },
    "status": "OPEN",
    "bike_stands": 30,
    "available_bikes": 3,
    "available_bike_stands": 25,
    "banking": false,
    "last_update": 1777412687000
  },
  {
    "number": 79,
    "name": "079 - LOI / WET",
    "address": "LOI/WET - RUE D'ARLON/STRAAT 120",
    "position": {
      "lat": 50.84413,
      "lng": 4.374871
    },
    "status": "OPEN",
    "bike_stands": 22,
    "available_bikes": 3,
    "available_bike_stands": 19,
    "banking": false,
    "last_update": 1777412727000
  },
  {
    "number": 114,
    "name": "114 - SAISONS / JAARGETIJDEN",
    "address": "Av. des Saisons / Jaargetijdenlaan 2",
    "position": {
      "lat": 50.820391,
      "lng": 4.385358
    },
    "status": "OPEN",
    "bike_stands": 25,
    "available_bikes": 4,
    "available_bike_stands": 20,
    "banking": false,
    "last_update": 1777412660000
  },
  {
    "number": 339,
    "name": "339 - MEUDON",
    "address": "MEUDON - SQUARE MEUDON",
    "position": {
      "lat": 50.845365,
      "lng": 4.41788
    },
    "status": "OPEN",
    "bike_stands": 22,
    "available_bikes": 9,
    "available_bike_stands": 13,
    "banking": false,
    "last_update": 1777412677000
  },
  {
    "number": 285,
    "name": "285 - COGHEN",
    "address": "COGHEN - AV COGHEN 1 A 5 / COGHENSTRAAT 1 TOT 5",
    "position": {
      "lat": 50.813469,
      "lng": 4.338951
    },
    "status": "OPEN",
    "bike_stands": 25,
    "available_bikes": 7,
    "available_bike_stands": 18,
    "banking": false,
    "last_update": 1777412672000
  },
  {
    "number": 232,
    "name": "232 - DOMAINE / DOMEIN",
    "address": "DOMAINE / DOMEIN - AV DU DOMAINE (FACE 150) / DOMEINELAAN (VOOR 150)",
    "position": {
      "lat": 50.810875,
      "lng": 4.329158
    },
    "status": "CLOSED",
    "bike_stands": 25,
    "available_bikes": 0,
    "available_bike_stands": 0,
    "banking": false,
    "last_update": 1777412646000
  },
  {
    "number": 191,
    "name": "191 - ARTAN",
    "address": "ARTAN - RUE CLAYS",
    "position": {
      "lat": 50.853973,
      "lng": 4.38374
    },
    "status": "OPEN",
    "bike_stands": 24,
    "available_bikes": 19,
    "available_bike_stands": 5,
    "banking": false,
    "last_update": 1777412604000
  },
  {
    "number": 221,
    "name": "221 - CURIE",
    "address": "Sq. Marie Curie 50 / Marie Curiesquare 50",
    "position": {
      "lat": 50.821793,
      "lng": 4.284648
    },
    "status": "OPEN",
    "bike_stands": 25,
    "available_bikes": 15,
    "available_bike_stands": 10,
    "banking": false,
    "last_update": 1777412652000
  },
  {
    "number": 153,
    "name": "153 - SQUARE ARMAND STEURS / ARMAND STEURSSQUARE",
    "address": "Av. Paul Deschanel / Paul Deschanellaan 260",
    "position": {
      "lat": 50.854128,
      "lng": 4.378002
    },
    "status": "OPEN",
    "bike_stands": 25,
    "available_bikes": 18,
    "available_bike_stands": 7,
    "banking": false,
    "last_update": 1777412752000
  },
  {
    "number": 97,
    "name": "097 - KARREVELD",
    "address": "Av du Karreveld / Karreveldlaan 1",
    "position": {
      "lat": 50.858058,
      "lng": 4.318689
    },
    "status": "OPEN",
    "bike_stands": 25,
    "available_bikes": 14,
    "available_bike_stands": 6,
    "banking": false,
    "last_update": 1777413010000
  },
  {
    "number": 169,
    "name": "169 - GEORGES EEKHOUD",
    "address": "GEORGES EEKHOUD - AVENUE GEORGES EEKHOUD/GEORGES EEKHOUDLAAN 56",
    "position": {
      "lat": 50.877125,
      "lng": 4.387515
    },
    "status": "OPEN",
    "bike_stands": 25,
    "available_bikes": 11,
    "available_bike_stands": 14,
    "banking": false,
    "last_update": 1777412655000
  },
  {
    "number": 43,
    "name": "043 - JOSEPH II / JOZEF II",
    "address": "JOSEPH II/JOZEF II - RUE JOSEPH II/JOZEF II-STRAAT",
    "position": {
      "lat": 50.845256,
      "lng": 4.374501
    },
    "status": "OPEN",
    "bike_stands": 25,
    "available_bikes": 11,
    "available_bike_stands": 13,
    "banking": false,
    "last_update": 1777412737000
  },
  {
    "number": 100,
    "name": "100 - LUXEMBOURG / LUXEMBURG",
    "address": "Rue de Trèves 26 / Trierstraat 26",
    "position": {
      "lat": 50.838411,
      "lng": 4.37302
    },
    "status": "OPEN",
    "bike_stands": 44,
    "available_bikes": 0,
    "available_bike_stands": 43,
    "banking": false,
    "last_update": 1777412746000
  },
  {
    "number": 58,
    "name": "058 - GARE DU NORD / NOORDSTATION",
    "address": "GARE DU NORD/NOORDSTATION - PLACE DU NORD / NOORDPLAATS",
    "position": {
      "lat": 50.859181,
      "lng": 4.35942
    },
    "status": "OPEN",
    "bike_stands": 43,
    "available_bikes": 12,
    "available_bike_stands": 29,
    "banking": false,
    "last_update": 1777412763000
  },
  {
    "number": 269,
    "name": "269 - CICERON / CICERO",
    "address": "Chau. de Louvain 951 / Leuvensesteenweg 951",
    "position": {
      "lat": 50.860957,
      "lng": 4.421515
    },
    "status": "OPEN",
    "bike_stands": 25,
    "available_bikes": 13,
    "available_bike_stands": 11,
    "banking": false,
    "last_update": 1777412597000
  },
  {
    "number": 319,
    "name": "319 - ANCIENNE BARRIERE / OUDE AFSPANNING",
    "address": "Pl. de l'Ancienne Barrière 11 / Oude Afspanningsplein 11",
    "position": {
      "lat": 50.884954,
      "lng": 4.317553
    },
    "status": "OPEN",
    "bike_stands": 20,
    "available_bikes": 15,
    "available_bike_stands": 5,
    "banking": false,
    "last_update": 1777412643000
  },
  {
    "number": 256,
    "name": "256 - VAN OVERBEKE",
    "address": "VAN OVERBEKE / AV VAN OVERBEKE / VAN OVERBEKELAAN",
    "position": {
      "lat": 50.874767,
      "lng": 4.308977
    },
    "status": "OPEN",
    "bike_stands": 24,
    "available_bikes": 16,
    "available_bike_stands": 8,
    "banking": false,
    "last_update": 1777412589000
  },
  {
    "number": 130,
    "name": "130 - ROND-POINT DU SOUVERAIN / VORSTRONDPUNT",
    "address": "Bd du Souverain / Vorstlaan 207",
    "position": {
      "lat": 50.819448,
      "lng": 4.429082
    },
    "status": "OPEN",
    "bike_stands": 23,
    "available_bikes": 15,
    "available_bike_stands": 8,
    "banking": false,
    "last_update": 1777412587000
  },
  {
    "number": 39,
    "name": "039 - HOTEL DES MONNAIES / MUNTHOTEL",
    "address": "Bd de Waterloo / Waterloolaan 96",
    "position": {
      "lat": 50.834237,
      "lng": 4.350732
    },
    "status": "OPEN",
    "bike_stands": 25,
    "available_bikes": 10,
    "available_bike_stands": 15,
    "banking": false,
    "last_update": 1777412642000
  },
  {
    "number": 86,
    "name": "086 - MAISON COMMUNALE JETTE / GEMEENTEHUIS JETTE",
    "address": "Chau. de Wemmel / Wemmelsesteenweg 102",
    "position": {
      "lat": 50.876195,
      "lng": 4.324477
    },
    "status": "OPEN",
    "bike_stands": 25,
    "available_bikes": 13,
    "available_bike_stands": 12,
    "banking": false,
    "last_update": 1777412650000
  },
  {
    "number": 345,
    "name": "345 - TROIS TILLEULS / DRIE LINDEN",
    "address": "Av. des Ortolans 2 / Ortolanenlaan 2",
    "position": {
      "lat": 50.802713,
      "lng": 4.411871
    },
    "status": "OPEN",
    "bike_stands": 18,
    "available_bikes": 9,
    "available_bike_stands": 9,
    "banking": false,
    "last_update": 1777412647000
  },
  {
    "number": 67,
    "name": "067 - PARC CINQUANTENAIRE / JUBELPARK",
    "address": "PARC CINQUANTENAIRE/JUBELPARK - AVENUE D'AUDERGHEM/OUDERGEMSESTEENWEG 45",
    "position": {
      "lat": 50.83975,
      "lng": 4.385426
    },
    "status": "OPEN",
    "bike_stands": 35,
    "available_bikes": 10,
    "available_bike_stands": 24,
    "banking": false,
    "last_update": 1777412788000
  },
  {
    "number": 292,
    "name": "292 - RITTWEGER",
    "address": "RITTWEGER - RUE RITTWEGER 6-8 / RITTWEGERSTRAAT 6-8",
    "position": {
      "lat": 50.797739,
      "lng": 4.336083
    },
    "status": "OPEN",
    "bike_stands": 20,
    "available_bikes": 11,
    "available_bike_stands": 9,
    "banking": false,
    "last_update": 1777412734000
  },
  {
    "number": 307,
    "name": "307 - KAREL BOGAERD",
    "address": "Bd Emile Bockstael 307 / Emile Bockstaellaan 307",
    "position": {
      "lat": 50.88194,
      "lng": 4.347501
    },
    "status": "OPEN",
    "bike_stands": 20,
    "available_bikes": 16,
    "available_bike_stands": 4,
    "banking": false,
    "last_update": 1777412582000
  },
  {
    "number": 359,
    "name": "359 - JCDECAUX",
    "address": "JCDECAUX - ALLÉE VERTE 50 À 1000 BRUXELLES",
    "position": {
      "lat": 50.867708,
      "lng": 4.357532
    },
    "status": "OPEN",
    "bike_stands": 20,
    "available_bikes": 12,
    "available_bike_stands": 8,
    "banking": false,
    "last_update": 1777412863000
  },
  {
    "number": 344,
    "name": "344 - BETHLEEM / BETHLEHEM",
    "address": "Place de Bethléem 10 / Bethlehemplein 10",
    "position": {
      "lat": 50.830235,
      "lng": 4.337965
    },
    "status": "OPEN",
    "bike_stands": 20,
    "available_bikes": 6,
    "available_bike_stands": 11,
    "banking": false,
    "last_update": 1777412681000
  },
  {
    "number": 268,
    "name": "268 - DUNANT",
    "address": "DUNANT - AV HENRI DUNANT / HENRI DUNANTLAAN",
    "position": {
      "lat": 50.862808,
      "lng": 4.410791
    },
    "status": "OPEN",
    "bike_stands": 20,
    "available_bikes": 9,
    "available_bike_stands": 11,
    "banking": false,
    "last_update": 1777413073000
  },
  {
    "number": 111,
    "name": "111 - ETANGS MELLAERTS / MELLAERTS VIJVERS",
    "address": "Bd du Souverain / Vorstlaan 275",
    "position": {
      "lat": 50.827831,
      "lng": 4.431822
    },
    "status": "OPEN",
    "bike_stands": 25,
    "available_bikes": 8,
    "available_bike_stands": 16,
    "banking": false,
    "last_update": 1777412654000
  },
  {
    "number": 27,
    "name": "027 - SQUARE ALBERT I / ALBERT I SQUARE",
    "address": "SQUARE ALBERT I / ALBERT I-SQUARE 25 - 26 - 27",
    "position": {
      "lat": 50.838733,
      "lng": 4.32176
    },
    "status": "OPEN",
    "bike_stands": 25,
    "available_bikes": 6,
    "available_bike_stands": 15,
    "banking": false,
    "last_update": 1777412873000
  },
  {
    "number": 355,
    "name": "355 - PARNASSE / PARNASSUS",
    "address": "Rue du Trône 66 / Troonstraat 66",
    "position": {
      "lat": 50.837738,
      "lng": 4.3692
    },
    "status": "OPEN",
    "bike_stands": 22,
    "available_bikes": 6,
    "available_bike_stands": 11,
    "banking": false,
    "last_update": 1777412669000
  },
  {
    "number": 157,
    "name": "157 - HELIOTROPES / HELIOTROPEN",
    "address": "Bd Lambermont / Lambermontlaan 374",
    "position": {
      "lat": 50.863388,
      "lng": 4.386222
    },
    "status": "OPEN",
    "bike_stands": 25,
    "available_bikes": 10,
    "available_bike_stands": 15,
    "banking": false,
    "last_update": 1777412591000
  },
  {
    "number": 154,
    "name": "154 - PLASKY",
    "address": "Square Eugène Plasky / Eugène Plaskysquare 100",
    "position": {
      "lat": 50.851241,
      "lng": 4.396386
    },
    "status": "OPEN",
    "bike_stands": 25,
    "available_bikes": 18,
    "available_bike_stands": 7,
    "banking": false,
    "last_update": 1777412660000
  },
  {
    "number": 132,
    "name": "132 - DEUX CHAUSSEES / TWEESTEENWEGEN",
    "address": "Chau. de Tervuren / Tervurenlaan 93A",
    "position": {
      "lat": 50.816338,
      "lng": 4.433895
    },
    "status": "OPEN",
    "bike_stands": 19,
    "available_bikes": 11,
    "available_bike_stands": 8,
    "banking": false,
    "last_update": 1777412613000
  },
  {
    "number": 134,
    "name": "134 - BASTOGNE / BASTENAKEN",
    "address": "Pl. de Bastogne / Bastenakenplein",
    "position": {
      "lat": 50.862652,
      "lng": 4.316644
    },
    "status": "OPEN",
    "bike_stands": 25,
    "available_bikes": 14,
    "available_bike_stands": 11,
    "banking": false,
    "last_update": 1777412591000
  },
  {
    "number": 208,
    "name": "208 - MELBA",
    "address": "MELBA - AV NELLIE MELBA (FACE 1 a 9) / NELLIE MELBALAAN (TEGENOVER 1 tot 9)",
    "position": {
      "lat": 50.832565,
      "lng": 4.294311
    },
    "status": "OPEN",
    "bike_stands": 25,
    "available_bikes": 11,
    "available_bike_stands": 13,
    "banking": false,
    "last_update": 1777412580000
  },
  {
    "number": 48,
    "name": "048 - CONGRES",
    "address": "Rue Royale / Koningstraat 140",
    "position": {
      "lat": 50.849358,
      "lng": 4.363589
    },
    "status": "OPEN",
    "bike_stands": 23,
    "available_bikes": 13,
    "available_bike_stands": 10,
    "banking": false,
    "last_update": 1777412710000
  },
  {
    "number": 342,
    "name": "342 - MAISON COMM. BERCHEM / GEMEENTEH. BERCHEM",
    "address": "Av. du Roi Albert 38 / Koning Albertlaan 38",
    "position": {
      "lat": 50.864771,
      "lng": 4.294266
    },
    "status": "OPEN",
    "bike_stands": 20,
    "available_bikes": 15,
    "available_bike_stands": 5,
    "banking": false,
    "last_update": 1777412574000
  },
  {
    "number": 197,
    "name": "197 - DE SMET",
    "address": "DE SMET - PLACE HENRI DE SMET / HENRI DE SMETPLEIN",
    "position": {
      "lat": 50.848255,
      "lng": 4.314854
    },
    "status": "OPEN",
    "bike_stands": 25,
    "available_bikes": 14,
    "available_bike_stands": 10,
    "banking": false,
    "last_update": 1777412641000
  },
  {
    "number": 62,
    "name": "062 - CORTENBERGH / KORTENBERG",
    "address": "CORTENBERGH / KORTENBERG - AVENUE D'AUDERGHEM 1 - 9 /OUDERGHEMLAAN 1-9",
    "position": {
      "lat": 50.84177,
      "lng": 4.38418
    },
    "status": "OPEN",
    "bike_stands": 35,
    "available_bikes": 26,
    "available_bike_stands": 9,
    "banking": false,
    "last_update": 1777412986000
  },
  {
    "number": 278,
    "name": "278 - STADE / STADION",
    "address": "Av. Houba de Strooper 510 / Houba de Strooperlaan 510",
    "position": {
      "lat": 50.893923,
      "lng": 4.332117
    },
    "status": "OPEN",
    "bike_stands": 25,
    "available_bikes": 11,
    "available_bike_stands": 14,
    "banking": false,
    "last_update": 1777412598000
  },
  {
    "number": 320,
    "name": "320 - UZ BRUSSEL",
    "address": "UZ BRUSSEL - AVENUE DE L'ARBRE BALLON / DIKKE-BEUKLAAN",
    "position": {
      "lat": 50.886451,
      "lng": 4.310966
    },
    "status": "OPEN",
    "bike_stands": 20,
    "available_bikes": 8,
    "available_bike_stands": 12,
    "banking": false,
    "last_update": 1777412690000
  },
  {
    "number": 187,
    "name": "187 - ARSENAL / ARSENAAL",
    "address": "Bd Louis Schmidt / Louis Schmidtlaan 2",
    "position": {
      "lat": 50.826603,
      "lng": 4.397117
    },
    "status": "OPEN",
    "bike_stands": 25,
    "available_bikes": 1,
    "available_bike_stands": 23,
    "banking": false,
    "last_update": 1777412681000
  },
  {
    "number": 315,
    "name": "315 - SACRE-COEUR AUDERGHEM / HEILIG HART OUDERGEM",
    "address": "Square du Sacré-Coeur / Heilig Hartsquare",
    "position": {
      "lat": 50.810322,
      "lng": 4.435789
    },
    "status": "OPEN",
    "bike_stands": 19,
    "available_bikes": 7,
    "available_bike_stands": 10,
    "banking": false,
    "last_update": 1777412816000
  },
  {
    "number": 291,
    "name": "291 - DECROLY",
    "address": "DECROLY - RUE GATTI DE GAMMOND / GATTI DE GAMMOND STRAAT",
    "position": {
      "lat": 50.804661,
      "lng": 4.327886
    },
    "status": "OPEN",
    "bike_stands": 19,
    "available_bikes": 8,
    "available_bike_stands": 11,
    "banking": false,
    "last_update": 1777412582000
  },
  {
    "number": 238,
    "name": "238 - UNION SAINT-GILLOISE / UNION SINT-GILLIS",
    "address": "Chau. de Bruxelles 364 / Brusselsesteenweg 364",
    "position": {
      "lat": 50.820199,
      "lng": 4.330806
    },
    "status": "OPEN",
    "bike_stands": 20,
    "available_bikes": 11,
    "available_bike_stands": 8,
    "banking": false,
    "last_update": 1777412646000
  },
  {
    "number": 266,
    "name": "266 - GARE DE BORDET / BORDET STATION",
    "address": "Chau. de Haecht 1145 / Haachtsesteenweg 1145",
    "position": {
      "lat": 50.877476,
      "lng": 4.409133
    },
    "status": "OPEN",
    "bike_stands": 21,
    "available_bikes": 9,
    "available_bike_stands": 12,
    "banking": false,
    "last_update": 1777412748000
  },
  {
    "number": 17,
    "name": "017 - COMTE DE FLANDRE / GRAAF VAN VLAANDEREN",
    "address": "Rue Sainte-Marie / Sint-Mariastraat 60",
    "position": {
      "lat": 50.855358,
      "lng": 4.339465
    },
    "status": "OPEN",
    "bike_stands": 18,
    "available_bikes": 4,
    "available_bike_stands": 14,
    "banking": false,
    "last_update": 1777412678000
  },
  {
    "number": 229,
    "name": "229 - ZAMAN-FOREST NAT. / ZAMAN-VORST NAT.",
    "address": "Av. Van Volxem 2 / Van Volxemlaan 2",
    "position": {
      "lat": 50.813708,
      "lng": 4.324706
    },
    "status": "OPEN",
    "bike_stands": 18,
    "available_bikes": 2,
    "available_bike_stands": 16,
    "banking": false,
    "last_update": 1777412593000
  },
  {
    "number": 74,
    "name": "074 - PLACE LOIX / LOIXPLEIN",
    "address": "PLACE LOIX / LOIXPLEIN - Rue Berckmans / Berckmansstraat 78 - 84",
    "position": {
      "lat": 50.831936,
      "lng": 4.353037
    },
    "status": "OPEN",
    "bike_stands": 24,
    "available_bikes": 18,
    "available_bike_stands": 6,
    "banking": false,
    "last_update": 1777412802000
  },
  {
    "number": 106,
    "name": "106 - GERMOIR / MOUTERIJ",
    "address": "Av. de la Couronne / Kroonlaan 94",
    "position": {
      "lat": 50.830012,
      "lng": 4.378625
    },
    "status": "OPEN",
    "bike_stands": 25,
    "available_bikes": 11,
    "available_bike_stands": 14,
    "banking": false,
    "last_update": 1777412653000
  },
  {
    "number": 267,
    "name": "267 - GENEVE",
    "address": "GENEVE - RUE DE GENEVE /  GENEVESTRAT 12",
    "position": {
      "lat": 50.862912,
      "lng": 4.403226
    },
    "status": "OPEN",
    "bike_stands": 25,
    "available_bikes": 12,
    "available_bike_stands": 13,
    "banking": false,
    "last_update": 1777412974000
  },
  {
    "number": 190,
    "name": "190 - TERDELT",
    "address": "Place Terdelt / Teldertplein 6",
    "position": {
      "lat": 50.867904,
      "lng": 4.390696
    },
    "status": "OPEN",
    "bike_stands": 22,
    "available_bikes": 12,
    "available_bike_stands": 10,
    "banking": false,
    "last_update": 1777412680000
  },
  {
    "number": 362,
    "name": "362 - GARE DE BERCHEM / BERCHEM STATION",
    "address": "Rue Bois des Iles 2 / Eilandenhoutstraat 2",
    "position": {
      "lat": 50.872491,
      "lng": 4.290227
    },
    "status": "OPEN",
    "bike_stands": 20,
    "available_bikes": 6,
    "available_bike_stands": 13,
    "banking": false,
    "last_update": 1777412573000
  },
  {
    "number": 16,
    "name": "016 - LOUISE / LOUIZA",
    "address": "LOUISE/LOUIZA - PLACE LOUISE/LOUIZAPLEIN 53",
    "position": {
      "lat": 50.835968,
      "lng": 4.355508
    },
    "status": "OPEN",
    "bike_stands": 40,
    "available_bikes": 11,
    "available_bike_stands": 24,
    "banking": false,
    "last_update": 1777412889000
  },
  {
    "number": 318,
    "name": "318 - CARDINAL MERCIER / KARDINAAL MERCIER",
    "address": "Pl. Cardinal Mercier 10 / Kardinaal Mercierplein 10",
    "position": {
      "lat": 50.880539,
      "lng": 4.32823
    },
    "status": "OPEN",
    "bike_stands": 20,
    "available_bikes": 11,
    "available_bike_stands": 8,
    "banking": false,
    "last_update": 1777412641000
  },
  {
    "number": 217,
    "name": "217 - BIZET",
    "address": "Pl. Bizet 15 / Bizetplein 15",
    "position": {
      "lat": 50.82496,
      "lng": 4.297422
    },
    "status": "OPEN",
    "bike_stands": 23,
    "available_bikes": 9,
    "available_bike_stands": 14,
    "banking": false,
    "last_update": 1777412626000
  },
  {
    "number": 116,
    "name": "116 - ULB PLAINE",
    "address": "Bd de la Plaine / Pleinlaan (ULB accès 2)",
    "position": {
      "lat": 50.818253,
      "lng": 4.395749
    },
    "status": "OPEN",
    "bike_stands": 25,
    "available_bikes": 5,
    "available_bike_stands": 19,
    "banking": false,
    "last_update": 1777412795000
  },
  {
    "number": 275,
    "name": "275 - VERSAILLES",
    "address": "VERSAILLES - AVENUE DE VERSAILLES / VERSAILLESLAAN 125",
    "position": {
      "lat": 50.896278,
      "lng": 4.372427
    },
    "status": "OPEN",
    "bike_stands": 20,
    "available_bikes": 12,
    "available_bike_stands": 8,
    "banking": false,
    "last_update": 1777412863000
  },
  {
    "number": 69,
    "name": "069 - LESBROUSSART",
    "address": "LESBROUSSART - AVENUE LOUISE/LOUIZALAAN 192",
    "position": {
      "lat": 50.827577,
      "lng": 4.363797
    },
    "status": "OPEN",
    "bike_stands": 29,
    "available_bikes": 2,
    "available_bike_stands": 25,
    "banking": false,
    "last_update": 1777412783000
  },
  {
    "number": 329,
    "name": "329 - ROODEBEEK",
    "address": "ROODEBEEK - AV PAUL HYMANS FACE À L'ARRÊT METRO ROODEBEEK",
    "position": {
      "lat": 50.847617,
      "lng": 4.436084
    },
    "status": "OPEN",
    "bike_stands": 24,
    "available_bikes": 19,
    "available_bike_stands": 5,
    "banking": false,
    "last_update": 1777412645000
  },
  {
    "number": 183,
    "name": "183 - LA CHASSE / JACHT",
    "address": "Av. des Casernes / Kazernenlaan 4",
    "position": {
      "lat": 50.829928,
      "lng": 4.390357
    },
    "status": "OPEN",
    "bike_stands": 25,
    "available_bikes": 6,
    "available_bike_stands": 19,
    "banking": false,
    "last_update": 1777412711000
  },
  {
    "number": 117,
    "name": "117 - CIMETIERE D'IXELLES/BEGRAAFPLAATS VAN ELSENE",
    "address": "Av. de la Couronne / Kroonlaan 449",
    "position": {
      "lat": 50.816029,
      "lng": 4.391006
    },
    "status": "OPEN",
    "bike_stands": 34,
    "available_bikes": 13,
    "available_bike_stands": 20,
    "banking": false,
    "last_update": 1777412650000
  },
  {
    "number": 168,
    "name": "168 - HOPITAL FRANÇAIS / FRANS GASTHUIS",
    "address": "Av. Josse Goffin / Josse Goffinlaan 125",
    "position": {
      "lat": 50.866379,
      "lng": 4.303281
    },
    "status": "OPEN",
    "bike_stands": 25,
    "available_bikes": 13,
    "available_bike_stands": 12,
    "banking": false,
    "last_update": 1777412590000
  },
  {
    "number": 257,
    "name": "257 - MARGUERITE D'AUTR. / MARGARETHA VAN OOSTENR.",
    "address": "Pl. Marguerite d'Autriche 4 / Margaretha van Oostenrijkplein 4",
    "position": {
      "lat": 50.872249,
      "lng": 4.298174
    },
    "status": "OPEN",
    "bike_stands": 25,
    "available_bikes": 11,
    "available_bike_stands": 14,
    "banking": false,
    "last_update": 1777412678000
  },
  {
    "number": 49,
    "name": "049 - WILLEBROECK / WILLEBROEK",
    "address": "WILLEBROECK / WILLEBROEK - Quai de Willebroeck / Willebroekkaai 22",
    "position": {
      "lat": 50.8615,
      "lng": 4.351143
    },
    "status": "OPEN",
    "bike_stands": 25,
    "available_bikes": 25,
    "available_bike_stands": 0,
    "banking": false,
    "last_update": 1777412671000
  },
  {
    "number": 118,
    "name": "118 - SCHWEITZER",
    "address": "SCHWEITZER - PLACE DOCTEUR SCHWEITZER",
    "position": {
      "lat": 50.864622,
      "lng": 4.297878
    },
    "status": "OPEN",
    "bike_stands": 25,
    "available_bikes": 11,
    "available_bike_stands": 13,
    "banking": false,
    "last_update": 1777412580000
  },
  {
    "number": 23,
    "name": "023 - AGORA",
    "address": "AGORA - Place Agora / Agoraplein 120",
    "position": {
      "lat": 50.846331,
      "lng": 4.355193
    },
    "status": "OPEN",
    "bike_stands": 19,
    "available_bikes": 9,
    "available_bike_stands": 10,
    "banking": false,
    "last_update": 1777412532000
  },
  {
    "number": 332,
    "name": "332 - VERGOTE",
    "address": "VERGOTE - BD BRAND WHITLOK",
    "position": {
      "lat": 50.845229,
      "lng": 4.404311
    },
    "status": "OPEN",
    "bike_stands": 24,
    "available_bikes": 10,
    "available_bike_stands": 14,
    "banking": false,
    "last_update": 1777412802000
  },
  {
    "number": 271,
    "name": "271 - DUBOIS",
    "address": "Bd Edmond Machtens 130 / Edmond Machtenslaan 130",
    "position": {
      "lat": 50.851158,
      "lng": 4.309591
    },
    "status": "OPEN",
    "bike_stands": 25,
    "available_bikes": 12,
    "available_bike_stands": 12,
    "banking": false,
    "last_update": 1777413025000
  },
  {
    "number": 66,
    "name": "066 - SCHUMAN",
    "address": "SCHUMAN - RUE DE LA LOI 170",
    "position": {
      "lat": 50.843359,
      "lng": 4.379946
    },
    "status": "OPEN",
    "bike_stands": 40,
    "available_bikes": 19,
    "available_bike_stands": 20,
    "banking": false,
    "last_update": 1777412735000
  },
  {
    "number": 251,
    "name": "251 - PAOLA",
    "address": "Rue Victor Allard / Victor Allardstraat 212",
    "position": {
      "lat": 50.800377,
      "lng": 4.326985
    },
    "status": "CLOSED",
    "bike_stands": 20,
    "available_bikes": 0,
    "available_bike_stands": 0,
    "banking": false,
    "last_update": 1777412634000
  },
  {
    "number": 131,
    "name": "131 - JARDIN MASSART / MASSARTTUIN",
    "address": "Av Herrmann-Debroux x Chau. de Wavre / Herrmann Debrouxlaan x Waversesteenweg",
    "position": {
      "lat": 50.81329,
      "lng": 4.434751
    },
    "status": "OPEN",
    "bike_stands": 25,
    "available_bikes": 13,
    "available_bike_stands": 11,
    "banking": false,
    "last_update": 1777412644000
  },
  {
    "number": 174,
    "name": "174 - MENNEKENS",
    "address": "Av. Brigade Piron / Brigade Pironlaan 80",
    "position": {
      "lat": 50.853947,
      "lng": 4.31635
    },
    "status": "OPEN",
    "bike_stands": 22,
    "available_bikes": 14,
    "available_bike_stands": 8,
    "banking": false,
    "last_update": 1777412601000
  },
  {
    "number": 56,
    "name": "056 - ARCHIMEDE / ARCHIMEDES",
    "address": "ARCHIMEDE / ARCHIMEDES - RUE ARCHIMEDE/ARCHIMEDESSTRAAT 58-64",
    "position": {
      "lat": 50.845817,
      "lng": 4.383722
    },
    "status": "OPEN",
    "bike_stands": 25,
    "available_bikes": 12,
    "available_bike_stands": 12,
    "banking": false,
    "last_update": 1777412764000
  },
  {
    "number": 123,
    "name": "123 - BASCULE",
    "address": "Chau. de Vleurgat / Vleurgatsesteenweg  316",
    "position": {
      "lat": 50.817507,
      "lng": 4.366498
    },
    "status": "OPEN",
    "bike_stands": 25,
    "available_bikes": 14,
    "available_bike_stands": 9,
    "banking": false,
    "last_update": 1777412966000
  },
  {
    "number": 143,
    "name": "143 - RTL",
    "address": "RTL  - CHAUSSEE DE LOUVAIN (DVT 770)/ LEUVENSE STEENWEG (N° 770)",
    "position": {
      "lat": 50.857218,
      "lng": 4.407879
    },
    "status": "OPEN",
    "bike_stands": 25,
    "available_bikes": 11,
    "available_bike_stands": 14,
    "banking": false,
    "last_update": 1777412664000
  },
  {
    "number": 83,
    "name": "083 - SIMONIS",
    "address": "SIMONIS / BD LEOPOLD II (DEVANT 282)/ LEOPOLD II-LAAN (N° 282)",
    "position": {
      "lat": 50.86284,
      "lng": 4.33126
    },
    "status": "OPEN",
    "bike_stands": 29,
    "available_bikes": 14,
    "available_bike_stands": 15,
    "banking": false,
    "last_update": 1777412641000
  },
  {
    "number": 155,
    "name": "155 - LES MARRONNIERS",
    "address": "Chau. de Wavre / Waversesteenweg 1051",
    "position": {
      "lat": 50.824953,
      "lng": 4.399088
    },
    "status": "OPEN",
    "bike_stands": 25,
    "available_bikes": 0,
    "available_bike_stands": 23,
    "banking": false,
    "last_update": 1777413066000
  },
  {
    "number": 147,
    "name": "147 - LYCEE EMILE MAX / EMILE MAX LYCEUM",
    "address": "Chaussée de Haecht / Haachtsesteenweg 226",
    "position": {
      "lat": 50.861874,
      "lng": 4.372146
    },
    "status": "OPEN",
    "bike_stands": 25,
    "available_bikes": 18,
    "available_bike_stands": 6,
    "banking": false,
    "last_update": 1777412663000
  },
  {
    "number": 84,
    "name": "084 - SAINTE-ANNE / SINT-ANNA",
    "address": "SAINTE-ANNE / SINT-ANNA - Rue de l'Église Sainte-Anne / Sint-Annakerkstraat 116",
    "position": {
      "lat": 50.85896,
      "lng": 4.330107
    },
    "status": "OPEN",
    "bike_stands": 20,
    "available_bikes": 15,
    "available_bike_stands": 5,
    "banking": false,
    "last_update": 1777412652000
  },
  {
    "number": 77,
    "name": "077 - PAUL JANSON",
    "address": "PAUL JANSON - CHAUSSEE DE CHARLEROI/ CHARLEROISESTEENWEG 159",
    "position": {
      "lat": 50.827399,
      "lng": 4.355281
    },
    "status": "OPEN",
    "bike_stands": 25,
    "available_bikes": 7,
    "available_bike_stands": 18,
    "banking": false,
    "last_update": 1777412712000
  },
  {
    "number": 323,
    "name": "323 - CARENE / CARINA",
    "address": "Av. Léon Grosjean 103 / Léon Grosjeanlaan 103",
    "position": {
      "lat": 50.85517,
      "lng": 4.415303
    },
    "status": "OPEN",
    "bike_stands": 20,
    "available_bikes": 8,
    "available_bike_stands": 10,
    "banking": false,
    "last_update": 1777412644000
  },
  {
    "number": 101,
    "name": "101 - ZELLIK",
    "address": "Chaussée de Zellik / Zelliksesteenweg 4",
    "position": {
      "lat": 50.869204,
      "lng": 4.291663
    },
    "status": "OPEN",
    "bike_stands": 25,
    "available_bikes": 15,
    "available_bike_stands": 9,
    "banking": false,
    "last_update": 1777412868000
  },
  {
    "number": 202,
    "name": "202 - AUMALE",
    "address": "AUMALE - RUE D'AUMALE / AUMALESTRAAT 339-341",
    "position": {
      "lat": 50.840217,
      "lng": 4.313386
    },
    "status": "OPEN",
    "bike_stands": 21,
    "available_bikes": 18,
    "available_bike_stands": 3,
    "banking": false,
    "last_update": 1777412602000
  },
  {
    "number": 270,
    "name": "270 - DE PADUWA",
    "address": "Av. des Anciens Combattants / Oud-Strijderslaan 1",
    "position": {
      "lat": 50.859215,
      "lng": 4.414115
    },
    "status": "OPEN",
    "bike_stands": 25,
    "available_bikes": 13,
    "available_bike_stands": 12,
    "banking": false,
    "last_update": 1777412513000
  },
  {
    "number": 365,
    "name": "365 - ADOLPHE MAX",
    "address": "Bd Adolphe Max 101 / Adolphe Maxlaan 101",
    "position": {
      "lat": 50.854062,
      "lng": 4.356368
    },
    "status": "OPEN",
    "bike_stands": 21,
    "available_bikes": 13,
    "available_bike_stands": 7,
    "banking": false,
    "last_update": 1777413030000
  },
  {
    "number": 235,
    "name": "235 - FOREST NATIONAL / VORST NATIONAAL",
    "address": "FOREST NATIONAL / VORST NATIONAAL - AV VICTOR ROUSSEAU DVT FOREST NATIONAL / VICTOR ROUSSEAU LAAN VOOR VORST NATIONAAL",
    "position": {
      "lat": 50.810085,
      "lng": 4.324864
    },
    "status": "OPEN",
    "bike_stands": 25,
    "available_bikes": 6,
    "available_bike_stands": 19,
    "banking": false,
    "last_update": 1777412596000
  },
  {
    "number": 138,
    "name": "138 - HOUFFALIZE",
    "address": "HOUFFALIZE - Rue de Jérusalem / Jerusalemstraat 85",
    "position": {
      "lat": 50.86511,
      "lng": 4.378466
    },
    "status": "OPEN",
    "bike_stands": 20,
    "available_bikes": 14,
    "available_bike_stands": 5,
    "banking": false,
    "last_update": 1777412616000
  },
  {
    "number": 300,
    "name": "300 - BOONDAEL GARE / BOONDAAL STATION",
    "address": "Av. de la Forêt 23 / Vorstlaan 23",
    "position": {
      "lat": 50.801455,
      "lng": 4.392831
    },
    "status": "OPEN",
    "bike_stands": 25,
    "available_bikes": 5,
    "available_bike_stands": 20,
    "banking": false,
    "last_update": 1777412596000
  },
  {
    "number": 94,
    "name": "094 - DUCHESSE DE BRABANT / HERTOGIN VAN BRABANT",
    "address": "DUCHESSE DE BRABANT / HERTOGIN VAN BRABANT - Rue de Birmingham / Birminghamstraat",
    "position": {
      "lat": 50.849215,
      "lng": 4.329184
    },
    "status": "OPEN",
    "bike_stands": 20,
    "available_bikes": 16,
    "available_bike_stands": 3,
    "banking": false,
    "last_update": 1777412780000
  },
  {
    "number": 263,
    "name": "263 - MAISON COMMUNALE EVERE / GEMEENTEHUIS EVERE",
    "address": "Square Hoedemaekers 7 / Hoedemaekerssquare 7",
    "position": {
      "lat": 50.871919,
      "lng": 4.403183
    },
    "status": "OPEN",
    "bike_stands": 19,
    "available_bikes": 6,
    "available_bike_stands": 13,
    "banking": false,
    "last_update": 1777412626000
  },
  {
    "number": 9,
    "name": "009 - ANNEESSENS",
    "address": "Bd Maurice Lemonnier / Maurice Lemonnierlaan 44",
    "position": {
      "lat": 50.844045,
      "lng": 4.345048
    },
    "status": "OPEN",
    "bike_stands": 35,
    "available_bikes": 14,
    "available_bike_stands": 19,
    "banking": false,
    "last_update": 1777412559000
  },
  {
    "number": 214,
    "name": "214 - CAMPUS CERIA / CAMPUS COOVI",
    "address": "Av. Emile Gryson 6 / Emile Grysonlaan 6",
    "position": {
      "lat": 50.815942,
      "lng": 4.295095
    },
    "status": "OPEN",
    "bike_stands": 30,
    "available_bikes": 19,
    "available_bike_stands": 7,
    "banking": false,
    "last_update": 1777412588000
  },
  {
    "number": 352,
    "name": "352 - ROUGE-CLOÎTRE / ROODKLOOSTER",
    "address": "Rue du Rouge-Cloître (parking Centre d'Art) / Roodkloosterstraat (parking Kunstencentrum)",
    "position": {
      "lat": 50.814264,
      "lng": 4.443479
    },
    "status": "OPEN",
    "bike_stands": 23,
    "available_bikes": 5,
    "available_bike_stands": 18,
    "banking": false,
    "last_update": 1777412672000
  },
  {
    "number": 133,
    "name": "133 - CHÂTEAU / KASTEEL",
    "address": "Av. du Château / Kasteellaan 133",
    "position": {
      "lat": 50.866795,
      "lng": 4.3092224
    },
    "status": "OPEN",
    "bike_stands": 24,
    "available_bikes": 9,
    "available_bike_stands": 15,
    "banking": false,
    "last_update": 1777412667000
  },
  {
    "number": 357,
    "name": "357 - AVIATION / LUCHTVAART",
    "address": "Av. de l'Aviation 59 / Luchtvaartlaan 59",
    "position": {
      "lat": 50.834556,
      "lng": 4.456873
    },
    "status": "OPEN",
    "bike_stands": 20,
    "available_bikes": 10,
    "available_bike_stands": 10,
    "banking": false,
    "last_update": 1777412651000
  },
  {
    "number": 171,
    "name": "171 - PISCINE LOUIS NAMECHE/ZWEMBAD LOUIS NAMECHE",
    "address": "Rue Charles Malis / Charles Malisstraat 71 (parking piscine / parking zwembad)",
    "position": {
      "lat": 50.854789,
      "lng": 4.312201
    },
    "status": "OPEN",
    "bike_stands": 25,
    "available_bikes": 14,
    "available_bike_stands": 10,
    "banking": false,
    "last_update": 1777412650000
  },
  {
    "number": 112,
    "name": "112 - PAGE / EDELKNAAP",
    "address": "Chaussée de Waterloo / Waterloosesteenweg 442",
    "position": {
      "lat": 50.821567,
      "lng": 4.356508
    },
    "status": "OPEN",
    "bike_stands": 18,
    "available_bikes": 10,
    "available_bike_stands": 7,
    "banking": false,
    "last_update": 1777412676000
  },
  {
    "number": 41,
    "name": "041 - SAINT-ROCH / SINT-ROCHUS",
    "address": "SAINT-ROCH / SINT-ROCHUS - Chau. d'Anvers / Antwerpselaan 37",
    "position": {
      "lat": 50.859302,
      "lng": 4.35485
    },
    "status": "OPEN",
    "bike_stands": 24,
    "available_bikes": 11,
    "available_bike_stands": 11,
    "banking": false,
    "last_update": 1777412616000
  },
  {
    "number": 249,
    "name": "249 - SAINT-JOB / SINT-JOB",
    "address": "Pl. de Saint-Job (à côté de l'église) / Sint-Jobsplein (naast de kerk)",
    "position": {
      "lat": 50.794173,
      "lng": 4.366414
    },
    "status": "OPEN",
    "bike_stands": 25,
    "available_bikes": 12,
    "available_bike_stands": 11,
    "banking": false,
    "last_update": 1777412640000
  },
  {
    "number": 240,
    "name": "240 - VANDERKINDERE",
    "address": "Av. Albert / Albertlaan 272",
    "position": {
      "lat": 50.81418,
      "lng": 4.347721
    },
    "status": "OPEN",
    "bike_stands": 23,
    "available_bikes": 4,
    "available_bike_stands": 19,
    "banking": false,
    "last_update": 1777412929000
  },
  {
    "number": 40,
    "name": "040 - PORTE DE HAL / HALLEPOORT",
    "address": "PORTE DE HAL/HALLEPOORT - BOULEVARD DU MIDI/ZUIDLAAN 142",
    "position": {
      "lat": 50.833931,
      "lng": 4.343155
    },
    "status": "OPEN",
    "bike_stands": 25,
    "available_bikes": 10,
    "available_bike_stands": 13,
    "banking": false,
    "last_update": 1777412710000
  },
  {
    "number": 109,
    "name": "109 - CHATELAIN / KASTELEIN",
    "address": "Rue de l'Aqueduc / Aquaductstraat 113",
    "position": {
      "lat": 50.824048,
      "lng": 4.359896
    },
    "status": "OPEN",
    "bike_stands": 18,
    "available_bikes": 5,
    "available_bike_stands": 11,
    "banking": false,
    "last_update": 1777412698000
  },
  {
    "number": 73,
    "name": "073 - VLEURGAT",
    "address": "VLEURGAT - AVENUE LOUISE/LOUIZALAAN 300",
    "position": {
      "lat": 50.823898,
      "lng": 4.367752
    },
    "status": "OPEN",
    "bike_stands": 25,
    "available_bikes": 20,
    "available_bike_stands": 5,
    "banking": false,
    "last_update": 1777412697000
  },
  {
    "number": 159,
    "name": "159 - MASUI",
    "address": "Av. de la Reine 157 / Koninginnelaan 157",
    "position": {
      "lat": 50.869297,
      "lng": 4.36257
    },
    "status": "OPEN",
    "bike_stands": 25,
    "available_bikes": 3,
    "available_bike_stands": 22,
    "banking": false,
    "last_update": 1777412603000
  },
  {
    "number": 199,
    "name": "199 - HENRI REY",
    "address": "Bd Félix Paulsen / Félix Paulsenlaan 5",
    "position": {
      "lat": 50.843693,
      "lng": 4.304986
    },
    "status": "OPEN",
    "bike_stands": 15,
    "available_bikes": 3,
    "available_bike_stands": 11,
    "banking": false,
    "last_update": 1777412644000
  },
  {
    "number": 65,
    "name": "065 - PARVIS DE ST-GILLES / ST-GILLISVOORPLEIN",
    "address": "Chau. de Waterloo / Waterloosesteenweg 65",
    "position": {
      "lat": 50.829985,
      "lng": 4.344557
    },
    "status": "OPEN",
    "bike_stands": 25,
    "available_bikes": 18,
    "available_bike_stands": 7,
    "banking": false,
    "last_update": 1777412712000
  },
  {
    "number": 243,
    "name": "243 - ROND-POINT CHURCHILL / CHURCHILLPLEIN",
    "address": "Av. de Messidor 243 / Messidorlaan 243",
    "position": {
      "lat": 50.811696,
      "lng": 4.353263
    },
    "status": "OPEN",
    "bike_stands": 25,
    "available_bikes": 9,
    "available_bike_stands": 16,
    "banking": false,
    "last_update": 1777412892000
  },
  {
    "number": 343,
    "name": "343 - VANDENDRIESCH",
    "address": "Rue J.-B. Vandendriesch 24 / J.-B. Vandendrieschstraat 24",
    "position": {
      "lat": 50.861754,
      "lng": 4.292798
    },
    "status": "OPEN",
    "bike_stands": 20,
    "available_bikes": 7,
    "available_bike_stands": 12,
    "banking": false,
    "last_update": 1777412651000
  },
  {
    "number": 301,
    "name": "301 - MARIE-JOSE",
    "address": "MARIE-JOSE - PLACE MARIE-JOSE FACE 14 / MARIE-JOSE PLAATS VOOR 14",
    "position": {
      "lat": 50.806552,
      "lng": 4.387843
    },
    "status": "OPEN",
    "bike_stands": 22,
    "available_bikes": 3,
    "available_bike_stands": 19,
    "banking": false,
    "last_update": 1777412940000
  },
  {
    "number": 26,
    "name": "026 - VAN LINT",
    "address": "VAN LINT - RUE VAN LINT/ VAN LINTSTRAAT 6 - 8",
    "position": {
      "lat": 50.839413,
      "lng": 4.328914
    },
    "status": "OPEN",
    "bike_stands": 23,
    "available_bikes": 9,
    "available_bike_stands": 14,
    "banking": false,
    "last_update": 1777412598000
  },
  {
    "number": 47,
    "name": "047 - LES QUAIS / KAAIEN",
    "address": "Quai à la Chaux / Kalkkaai 1",
    "position": {
      "lat": 50.854714,
      "lng": 4.347151
    },
    "status": "OPEN",
    "bike_stands": 20,
    "available_bikes": 7,
    "available_bike_stands": 13,
    "banking": false,
    "last_update": 1777412661000
  },
  {
    "number": 295,
    "name": "295 - COIN DU BALAI / BEZEMHOEK",
    "address": "Av. de la Foresterie 2 / Vorsterielaan 2",
    "position": {
      "lat": 50.793682,
      "lng": 4.418497
    },
    "status": "OPEN",
    "bike_stands": 25,
    "available_bikes": 18,
    "available_bike_stands": 7,
    "banking": false,
    "last_update": 1777412573000
  },
  {
    "number": 313,
    "name": "313 - DEMEY",
    "address": "DEMEY - INTERSECTION BD INVALIDENLAAN / AV LOUIS DEHOUXLAAN",
    "position": {
      "lat": 50.814858,
      "lng": 4.417184
    },
    "status": "OPEN",
    "bike_stands": 25,
    "available_bikes": 10,
    "available_bike_stands": 9,
    "banking": false,
    "last_update": 1777412590000
  },
  {
    "number": 61,
    "name": "061 - MAELBEEK / MAALBEEK",
    "address": "MAELBEEK/MAALBEEK - CHAUSSEE D'ETTERBEEK/ETTERBEEKSESTEENWEG 15",
    "position": {
      "lat": 50.843836,
      "lng": 4.378002
    },
    "status": "OPEN",
    "bike_stands": 35,
    "available_bikes": 6,
    "available_bike_stands": 28,
    "banking": false,
    "last_update": 1777412750000
  },
  {
    "number": 189,
    "name": "189 - PLACE VAN MEYEL / VAN MEYELPLEIN",
    "address": "Pl. Van Meyel / Van Meyelplein",
    "position": {
      "lat": 50.836924,
      "lng": 4.389073
    },
    "status": "OPEN",
    "bike_stands": 17,
    "available_bikes": 9,
    "available_bike_stands": 8,
    "banking": false,
    "last_update": 1777412694000
  },
  {
    "number": 54,
    "name": "054 - TOUR ET TAXIS / THURN & TAXIS",
    "address": "TOUR ET TAXIS / THURN & TAXIS - Rue Picard / Picardstraat 3",
    "position": {
      "lat": 50.863445,
      "lng": 4.34635
    },
    "status": "OPEN",
    "bike_stands": 39,
    "available_bikes": 16,
    "available_bike_stands": 23,
    "banking": false,
    "last_update": 1777412737000
  },
  {
    "number": 312,
    "name": "312 - CENTRE CULTUREL / CULTUREEL CENTRUM",
    "address": "Bd du Souverain 182 / Vorstlaan 182",
    "position": {
      "lat": 50.817087,
      "lng": 4.426761
    },
    "status": "OPEN",
    "bike_stands": 25,
    "available_bikes": 9,
    "available_bike_stands": 16,
    "banking": false,
    "last_update": 1777412678000
  },
  {
    "number": 135,
    "name": "135 - PARC LACROIX / LACROIX PARK",
    "address": "Av. Princesse Elisabeth / Prinses Elisabethlaan 24",
    "position": {
      "lat": 50.872343,
      "lng": 4.37646
    },
    "status": "OPEN",
    "bike_stands": 25,
    "available_bikes": 17,
    "available_bike_stands": 6,
    "banking": false,
    "last_update": 1777412684000
  },
  {
    "number": 287,
    "name": "287 - FLOREAL",
    "address": "FLOREAL - AV BRUGMANN 359 / BRUGMANNLAAN 359",
    "position": {
      "lat": 50.809334,
      "lng": 4.345243
    },
    "status": "OPEN",
    "bike_stands": 23,
    "available_bikes": 11,
    "available_bike_stands": 11,
    "banking": false,
    "last_update": 1777412683000
  },
  {
    "number": 239,
    "name": "239 - DARWIN",
    "address": "Av. Brugmann / Brugmannlaan 141",
    "position": {
      "lat": 50.817777,
      "lng": 4.350406
    },
    "status": "OPEN",
    "bike_stands": 25,
    "available_bikes": 16,
    "available_bike_stands": 7,
    "banking": false,
    "last_update": 1777412859000
  },
  {
    "number": 205,
    "name": "205 - DE LINDE",
    "address": "DE LINDE - PLACE DE LINDE 22 / DE LINDEPLEIN 22",
    "position": {
      "lat": 50.835503,
      "lng": 4.299573
    },
    "status": "OPEN",
    "bike_stands": 20,
    "available_bikes": 14,
    "available_bike_stands": 3,
    "banking": false,
    "last_update": 1777412787000
  },
  {
    "number": 137,
    "name": "137 - MAISON COMM SCHAERBEEK/GEMEENTEH. SCHAARBEEK",
    "address": "Rue Royale Sainte-Marie / Koninklijke Sinte-Mariastraat 243",
    "position": {
      "lat": 50.86661,
      "lng": 4.373102
    },
    "status": "OPEN",
    "bike_stands": 25,
    "available_bikes": 15,
    "available_bike_stands": 9,
    "banking": false,
    "last_update": 1777412675000
  },
  {
    "number": 185,
    "name": "185 - PERE DE DEKEN / PATER DE DEKEN",
    "address": "Rue Père de Deken / Pater de Dekenstraat 40",
    "position": {
      "lat": 50.835797,
      "lng": 4.401599
    },
    "status": "OPEN",
    "bike_stands": 25,
    "available_bikes": 16,
    "available_bike_stands": 8,
    "banking": false,
    "last_update": 1777412788000
  },
  {
    "number": 227,
    "name": "227 - PATINAGE / SCHAATSEN",
    "address": "Rue Saint-Denis 122 / Sint-Denijsstraat 122",
    "position": {
      "lat": 50.816695,
      "lng": 4.319891
    },
    "status": "OPEN",
    "bike_stands": 20,
    "available_bikes": 13,
    "available_bike_stands": 7,
    "banking": false,
    "last_update": 1777412598000
  },
  {
    "number": 88,
    "name": "088 - WOESTE",
    "address": "WOESTE - AVENUE NOTRE DAME DE LOURDES / ONZE-LIEVE-VROUW VAN LOURDESLAAN",
    "position": {
      "lat": 50.873354,
      "lng": 4.334311
    },
    "status": "OPEN",
    "bike_stands": 25,
    "available_bikes": 13,
    "available_bike_stands": 9,
    "banking": false,
    "last_update": 1777412635000
  },
  {
    "number": 182,
    "name": "182 - BOILEAU",
    "address": "BOILEAU - BOULEVARD SAINT MICHEL / SINT-MICHIELSLAAN",
    "position": {
      "lat": 50.83168,
      "lng": 4.404769
    },
    "status": "OPEN",
    "bike_stands": 25,
    "available_bikes": 10,
    "available_bike_stands": 15,
    "banking": false,
    "last_update": 1777412635000
  },
  {
    "number": 220,
    "name": "220 - LUTHER KING",
    "address": "LUTHER KING - BD MAURICE CAREME 30 / MAURICE CAREMELAAN 30",
    "position": {
      "lat": 50.824867,
      "lng": 4.287059
    },
    "status": "OPEN",
    "bike_stands": 25,
    "available_bikes": 14,
    "available_bike_stands": 10,
    "banking": false,
    "last_update": 1777412583000
  },
  {
    "number": 338,
    "name": "338 - UCL",
    "address": "UCL - AVENUE E.MOUNIER,40",
    "position": {
      "lat": 50.851073,
      "lng": 4.452706
    },
    "status": "OPEN",
    "bike_stands": 24,
    "available_bikes": 13,
    "available_bike_stands": 11,
    "banking": false,
    "last_update": 1777412582000
  },
  {
    "number": 142,
    "name": "142 - BIENFAITEURS / WELDOENERS",
    "address": "Av. Rogier / Rogierlaan 267",
    "position": {
      "lat": 50.857319,
      "lng": 4.386724
    },
    "status": "OPEN",
    "bike_stands": 24,
    "available_bikes": 16,
    "available_bike_stands": 8,
    "banking": false,
    "last_update": 1777412614000
  },
  {
    "number": 96,
    "name": "096 - HOTEL PRESIDENT / PRESIDENT HOTEL",
    "address": "Bd Roi Albert II / Koning Albert II-laan 37",
    "position": {
      "lat": 50.863875,
      "lng": 4.358708
    },
    "status": "OPEN",
    "bike_stands": 25,
    "available_bikes": 12,
    "available_bike_stands": 12,
    "banking": false,
    "last_update": 1777412620000
  },
  {
    "number": 119,
    "name": "119 - PAQUOT",
    "address": "Rue Jean Paquot /Jean Paquotstraat 46",
    "position": {
      "lat": 50.82559,
      "lng": 4.379555
    },
    "status": "OPEN",
    "bike_stands": 20,
    "available_bikes": 2,
    "available_bike_stands": 18,
    "banking": false,
    "last_update": 1777412699000
  },
  {
    "number": 264,
    "name": "264 - NOTRE-DAME / ONZE-LIEVE-VROUW",
    "address": "Av. Notre-Dame 57 / Onze Lieve Vrouwlaan 57",
    "position": {
      "lat": 50.871013,
      "lng": 4.397616
    },
    "status": "OPEN",
    "bike_stands": 20,
    "available_bikes": 7,
    "available_bike_stands": 13,
    "banking": false,
    "last_update": 1777412643000
  },
  {
    "number": 207,
    "name": "207 - BIESTEBROECK / BIESTEBROEK",
    "address": "Chaussée de Mons 591 / Bergensesteenweg 591",
    "position": {
      "lat": 50.83362,
      "lng": 4.313592
    },
    "status": "OPEN",
    "bike_stands": 25,
    "available_bikes": 15,
    "available_bike_stands": 10,
    "banking": false,
    "last_update": 1777412664000
  },
  {
    "number": 180,
    "name": "180 - JOURDAN",
    "address": "JOURDAN - RUE FROISSART (FACE 3 - 5) / FROISSARTSTRAAT (TEGENOVER 3 - 5)",
    "position": {
      "lat": 50.837726,
      "lng": 4.381565
    },
    "status": "OPEN",
    "bike_stands": 25,
    "available_bikes": 11,
    "available_bike_stands": 13,
    "banking": false,
    "last_update": 1777412836000
  },
  {
    "number": 254,
    "name": "254 - BASILIQUE / BASILIEK",
    "address": "Av. Gloires Nationales x Av. Jacques Sermon / Nationale Glorielaan x Jacques Sermonlaan",
    "position": {
      "lat": 50.867393,
      "lng": 4.320344
    },
    "status": "OPEN",
    "bike_stands": 22,
    "available_bikes": 11,
    "available_bike_stands": 11,
    "banking": false,
    "last_update": 1777412628000
  },
  {
    "number": 310,
    "name": "310 - SAINT-VINCENT / SINT-VINCENTIUS",
    "address": "Rue Stroobants 75 / Stroobantsstraat 75",
    "position": {
      "lat": 50.87992,
      "lng": 4.400427
    },
    "status": "OPEN",
    "bike_stands": 20,
    "available_bikes": 6,
    "available_bike_stands": 14,
    "banking": false,
    "last_update": 1777412596000
  },
  {
    "number": 63,
    "name": "063 - JULES CESAR / JULIUS CAESAR",
    "address": "JULES CESAR - AVENUE DE TERVUREN DEVANT / TERVURENLAAN VOOR 278",
    "position": {
      "lat": 50.834705,
      "lng": 4.421643
    },
    "status": "OPEN",
    "bike_stands": 20,
    "available_bikes": 14,
    "available_bike_stands": 6,
    "banking": false,
    "last_update": 1777412591000
  },
  {
    "number": 290,
    "name": "290 - GARE DE CALEVOET / KALEVOET STATION",
    "address": "Chau. d'Alsemberg 1006 / Alsembergsesteenweg 1006",
    "position": {
      "lat": 50.791568,
      "lng": 4.332586
    },
    "status": "OPEN",
    "bike_stands": 24,
    "available_bikes": 11,
    "available_bike_stands": 9,
    "banking": false,
    "last_update": 1777412645000
  },
  {
    "number": 124,
    "name": "124 - CHARLES GRAUX",
    "address": "CHARLES GRAUX - CHAUSSEE DE WATERLOO (DEVANT N° 585 - 587)/ WATERLOOSESTEENWEG (N° 585 - 587)",
    "position": {
      "lat": 50.818283,
      "lng": 4.363568
    },
    "status": "OPEN",
    "bike_stands": 25,
    "available_bikes": 13,
    "available_bike_stands": 12,
    "banking": false,
    "last_update": 1777412645000
  },
  {
    "number": 172,
    "name": "172 - AEROPOLIS",
    "address": "AEROPOLIS - CHAUSSEE D'HAECHT (FACE 586) / HAACHTSESTEENWEG (TEGENOVER 586)",
    "position": {
      "lat": 50.869764,
      "lng": 4.388191
    },
    "status": "OPEN",
    "bike_stands": 25,
    "available_bikes": 12,
    "available_bike_stands": 13,
    "banking": false,
    "last_update": 1777412826000
  },
  {
    "number": 60,
    "name": "060 - SAINT-LAZARE / SINT-LAZARUS",
    "address": "SAINT-LAZARE / SINT-LAZARUS - Bd Saint-Lazare / Sint-Lazaruslaan 5",
    "position": {
      "lat": 50.857385,
      "lng": 4.361858
    },
    "status": "OPEN",
    "bike_stands": 14,
    "available_bikes": 7,
    "available_bike_stands": 7,
    "banking": false,
    "last_update": 1777412673000
  },
  {
    "number": 156,
    "name": "156 - JAMBLINNE DE MEUX",
    "address": "Pl. Jamblinne de Meux / Jamblinne de Meuxplein 44",
    "position": {
      "lat": 50.847158,
      "lng": 4.393255
    },
    "status": "OPEN",
    "bike_stands": 25,
    "available_bikes": 11,
    "available_bike_stands": 14,
    "banking": false,
    "last_update": 1777412713000
  },
  {
    "number": 91,
    "name": "091 - BELGICA",
    "address": "Place Werrie / Werrieplein 24",
    "position": {
      "lat": 50.867773,
      "lng": 4.335217
    },
    "status": "OPEN",
    "bike_stands": 25,
    "available_bikes": 12,
    "available_bike_stands": 13,
    "banking": false,
    "last_update": 1777412593000
  },
  {
    "number": 337,
    "name": "337 - SHOPPING",
    "address": "SHOPPING - BD DE LA WOLUWE",
    "position": {
      "lat": 50.843779,
      "lng": 4.437698
    },
    "status": "OPEN",
    "bike_stands": 20,
    "available_bikes": 11,
    "available_bike_stands": 9,
    "banking": false,
    "last_update": 1777412672000
  },
  {
    "number": 311,
    "name": "311 - DELTA",
    "address": "DELTA - BD DES INVALIDES / INVALIDENLAAN",
    "position": {
      "lat": 50.818322,
      "lng": 4.404122
    },
    "status": "OPEN",
    "bike_stands": 22,
    "available_bikes": 5,
    "available_bike_stands": 17,
    "banking": false,
    "last_update": 1777412585000
  },
  {
    "number": 70,
    "name": "070 - AURORE / DAGERAAD",
    "address": "AURORE / DAGERAAD - Av. Louise / Louizalaan 440",
    "position": {
      "lat": 50.818113,
      "lng": 4.371446
    },
    "status": "OPEN",
    "bike_stands": 25,
    "available_bikes": 6,
    "available_bike_stands": 17,
    "banking": false,
    "last_update": 1777412611000
  },
  {
    "number": 244,
    "name": "244 - BOIS DE LA CAMBRE / TERKAMERENBOS",
    "address": "Chaussée de Waterloo 781 / Waterloosesteenweg 781",
    "position": {
      "lat": 50.81218,
      "lng": 4.368321
    },
    "status": "OPEN",
    "bike_stands": 20,
    "available_bikes": 8,
    "available_bike_stands": 11,
    "banking": false,
    "last_update": 1777412660000
  },
  {
    "number": 322,
    "name": "322 - PARC ROI BAUDOUIN / KONING BOUDEWIJNPARK",
    "address": "Rue J.-B. Moyens 20 / J.-B. Moyensstraat 20",
    "position": {
      "lat": 50.889582,
      "lng": 4.316351
    },
    "status": "OPEN",
    "bike_stands": 20,
    "available_bikes": 6,
    "available_bike_stands": 13,
    "banking": false,
    "last_update": 1777412568000
  },
  {
    "number": 170,
    "name": "170 - RIGA",
    "address": "RIGA - SQUARE FRANCOIS RIGA / FRANCOIS RIGASQUARE",
    "position": {
      "lat": 50.87453,
      "lng": 4.385378
    },
    "status": "OPEN",
    "bike_stands": 20,
    "available_bikes": 7,
    "available_bike_stands": 13,
    "banking": false,
    "last_update": 1777412614000
  },
  {
    "number": 14,
    "name": "014 - PORTE DE NAMUR / NAAMSEPOORT",
    "address": "PORTE DE NAMUR/NAAMSEPOORT - BOULEVARD DE WATERLOO 2",
    "position": {
      "lat": 50.838816,
      "lng": 4.361557
    },
    "status": "OPEN",
    "bike_stands": 42,
    "available_bikes": 20,
    "available_bike_stands": 22,
    "banking": false,
    "last_update": 1777412754000
  },
  {
    "number": 298,
    "name": "298 - HALL DES SPORTS / SPORTHAL",
    "address": "Rue Vanderveken 157B / Vandervekenstraat 157B",
    "position": {
      "lat": 50.877082,
      "lng": 4.301232
    },
    "status": "OPEN",
    "bike_stands": 25,
    "available_bikes": 9,
    "available_bike_stands": 16,
    "banking": false,
    "last_update": 1777412886000
  },
  {
    "number": 20,
    "name": "020 - PALAIS ROYAL / KONINKLIJK PALEIS",
    "address": "PALAIS ROYAL/KONINGSSTRAAT PALEIS - RUE ROYALE (DEVANT N°14)/KONINKLIJKESTRAAT (N°14)",
    "position": {
      "lat": 50.843613,
      "lng": 4.360628
    },
    "status": "OPEN",
    "bike_stands": 20,
    "available_bikes": 2,
    "available_bike_stands": 18,
    "banking": false,
    "last_update": 1777412500000
  },
  {
    "number": 107,
    "name": "107 - DEFACQZ",
    "address": "DEFACQZ - RUE DEFACQZ/ DEFACQZSTRAAT 60",
    "position": {
      "lat": 50.827652,
      "lng": 4.359031
    },
    "status": "OPEN",
    "bike_stands": 25,
    "available_bikes": 10,
    "available_bike_stands": 14,
    "banking": false,
    "last_update": 1777412945000
  },
  {
    "number": 281,
    "name": "281 - ATOMIUM",
    "address": "ATOMIUM - BOULEVARD DU CENTENAIRE / EEUWFEESTLAAN",
    "position": {
      "lat": 50.895485,
      "lng": 4.341311
    },
    "status": "OPEN",
    "bike_stands": 25,
    "available_bikes": 10,
    "available_bike_stands": 15,
    "banking": false,
    "last_update": 1777413001000
  },
  {
    "number": 209,
    "name": "209 - VEEWEYDE / VEEWEIDE",
    "address": "VEEWEYDE / VEEWEIDE - BD THEO LAMBERT (FACE 5 a 9) / THEO LAMBERTLAAN (TEGENOVER ( tot 9)",
    "position": {
      "lat": 50.828602,
      "lng": 4.299621
    },
    "status": "OPEN",
    "bike_stands": 25,
    "available_bikes": 11,
    "available_bike_stands": 14,
    "banking": false,
    "last_update": 1777412880000
  },
  {
    "number": 211,
    "name": "211 - METRO CERIA / METRO COOVI",
    "address": "Chaussée de Mons 1284 / Bergensesteenweg 1284",
    "position": {
      "lat": 50.816704,
      "lng": 4.290857
    },
    "status": "OPEN",
    "bike_stands": 22,
    "available_bikes": 5,
    "available_bike_stands": 16,
    "banking": false,
    "last_update": 1777412657000
  },
  {
    "number": 364,
    "name": "364 - DOCKS BRUXSEL",
    "address": "DOCKS BRUXSEL - AVENUE JULES VAN PRAETLAAN",
    "position": {
      "lat": 50.879086,
      "lng": 4.374729
    },
    "status": "OPEN",
    "bike_stands": 20,
    "available_bikes": 11,
    "available_bike_stands": 9,
    "banking": false,
    "last_update": 1777412591000
  },
  {
    "number": 127,
    "name": "127 - GRAY",
    "address": "Rue des Deux Ponts / Tweebruggenstraat 4",
    "position": {
      "lat": 50.832194,
      "lng": 4.377694
    },
    "status": "OPEN",
    "bike_stands": 18,
    "available_bikes": 18,
    "available_bike_stands": 0,
    "banking": false,
    "last_update": 1777412611000
  },
  {
    "number": 108,
    "name": "108 - FLAGEY",
    "address": "FLAGEY - PLACE FLAGEY (FACE 11)/EUGENE FLAGEYPLEIN (TEGENOVER 11)",
    "position": {
      "lat": 50.828012,
      "lng": 4.371756
    },
    "status": "OPEN",
    "bike_stands": 35,
    "available_bikes": 25,
    "available_bike_stands": 9,
    "banking": false,
    "last_update": 1777412767000
  },
  {
    "number": 34,
    "name": "034 - FONTAINAS",
    "address": "FONTAINAS - BLD ANSPACH N°180 A 192/ANSPACHLAAN N°180 TOT 192",
    "position": {
      "lat": 50.84563,
      "lng": 4.346942
    },
    "status": "CLOSED",
    "bike_stands": 35,
    "available_bikes": 0,
    "available_bike_stands": 0,
    "banking": false,
    "last_update": 1777412647000
  },
  {
    "number": 230,
    "name": "230 - BERKENDAEL / BERKENDAAL",
    "address": "BERKENDAEL / BERKENDAAL - AVENUE ALBERT / ALBERTLAAN 134",
    "position": {
      "lat": 50.818382,
      "lng": 4.346061
    },
    "status": "OPEN",
    "bike_stands": 24,
    "available_bikes": 5,
    "available_bike_stands": 17,
    "banking": false,
    "last_update": 1777412671000
  },
  {
    "number": 144,
    "name": "144 - SAINTE-MARIE / SINTE-MARIA",
    "address": "Rue Royale / Koningsstraat 259",
    "position": {
      "lat": 50.85778,
      "lng": 4.368144
    },
    "status": "OPEN",
    "bike_stands": 25,
    "available_bikes": 12,
    "available_bike_stands": 13,
    "banking": false,
    "last_update": 1777412618000
  },
  {
    "number": 1005,
    "name": "BORNE ATELIER MECANOS SPL",
    "address": "BORNE ATELIER MECANOS SPL - CHAUSSÉE DE MONS 173 - SAINT-PIETERS-LEEUW",
    "position": {
      "lat": 50.7978687517766,
      "lng": 4.28980290893378
    },
    "status": "OPEN",
    "bike_stands": 2,
    "available_bikes": 0,
    "available_bike_stands": 2,
    "banking": false,
    "last_update": 1777412664000
  },
  {
    "number": 336,
    "name": "336 - KRAAINEM",
    "address": "KRAAINEM - AV DE WEZEMBEEK 7A",
    "position": {
      "lat": 50.848578,
      "lng": 4.459038
    },
    "status": "OPEN",
    "bike_stands": 17,
    "available_bikes": 9,
    "available_bike_stands": 8,
    "banking": false,
    "last_update": 1777412598000
  },
  {
    "number": 105,
    "name": "105 - DE HENNIN",
    "address": "DE HENNIN -  CHAUSSEE D'IXELLES/ELSENSE STEENWEG 254 - 260",
    "position": {
      "lat": 50.830077,
      "lng": 4.369545
    },
    "status": "OPEN",
    "bike_stands": 20,
    "available_bikes": 12,
    "available_bike_stands": 4,
    "banking": false,
    "last_update": 1777412946000
  },
  {
    "number": 224,
    "name": "224 - ROCHEFORT",
    "address": "Av. Wielemans Ceuppens 188 / Wielemans Ceuppenslaan 188",
    "position": {
      "lat": 50.824379,
      "lng": 4.334202
    },
    "status": "OPEN",
    "bike_stands": 25,
    "available_bikes": 18,
    "available_bike_stands": 7,
    "banking": false,
    "last_update": 1777412699000
  },
  {
    "number": 89,
    "name": "089 - ATHENEE DE JETTE / ATHENEUM VAN JETTE",
    "address": "Av. de Levis Mirepoix 100 / de Levis Mirepoixlaan 100",
    "position": {
      "lat": 50.8710602400955,
      "lng": 4.32984977344234
    },
    "status": "OPEN",
    "bike_stands": 25,
    "available_bikes": 21,
    "available_bike_stands": 4,
    "banking": false,
    "last_update": 1777412609000
  },
  {
    "number": 328,
    "name": "328 - HEYDENBERG",
    "address": "HEYDENBERG - AV HEYDENBERG FACE 99-101",
    "position": {
      "lat": 50.849386,
      "lng": 4.41712
    },
    "status": "OPEN",
    "bike_stands": 20,
    "available_bikes": 8,
    "available_bike_stands": 12,
    "banking": false,
    "last_update": 1777412595000
  },
  {
    "number": 250,
    "name": "250 - SAINTE-ELISABETH / SINT-ELISABETH",
    "address": "Chau. de Waterloo x Av. De Fré / Waterloosesteenweg x De Frélaan",
    "position": {
      "lat": 50.805409,
      "lng": 4.371953
    },
    "status": "OPEN",
    "bike_stands": 25,
    "available_bikes": 13,
    "available_bike_stands": 12,
    "banking": false,
    "last_update": 1777412598000
  },
  {
    "number": 15,
    "name": "015 - MONTGOMERY",
    "address": "Av de Tervuren / Tervurenlaan 171",
    "position": {
      "lat": 50.837036,
      "lng": 4.406826
    },
    "status": "OPEN",
    "bike_stands": 25,
    "available_bikes": 4,
    "available_bike_stands": 21,
    "banking": false,
    "last_update": 1777412712000
  },
  {
    "number": 90,
    "name": "090 - BROUSTIN",
    "address": "BROUSTIN - AV DE JETTE/ JETSELAAN 73 - 81",
    "position": {
      "lat": 50.867448,
      "lng": 4.326807
    },
    "status": "OPEN",
    "bike_stands": 17,
    "available_bikes": 6,
    "available_bike_stands": 11,
    "banking": false,
    "last_update": 1777412689000
  },
  {
    "number": 194,
    "name": "194 - STUYVENBERG",
    "address": "AVENUE HOUBA DE STROOPER LAAN 30-32",
    "position": {
      "lat": 50.885885,
      "lng": 4.342003
    },
    "status": "OPEN",
    "bike_stands": 25,
    "available_bikes": 17,
    "available_bike_stands": 8,
    "banking": false,
    "last_update": 1777412616000
  },
  {
    "number": 218,
    "name": "218 - DELACROIX",
    "address": "DELACROIX - RUE DE BIRMINGHAM 96 / BIRMINGHAMSTRAAT 96",
    "position": {
      "lat": 50.845978218314,
      "lng": 4.3232258415201
    },
    "status": "OPEN",
    "bike_stands": 25,
    "available_bikes": 2,
    "available_bike_stands": 22,
    "banking": false,
    "last_update": 1777412593000
  },
  {
    "number": 150,
    "name": "150 - MEISER",
    "address": "Pl. Général Meiser / Generaal Meiserplein 3",
    "position": {
      "lat": 50.854654,
      "lng": 4.398451
    },
    "status": "OPEN",
    "bike_stands": 25,
    "available_bikes": 14,
    "available_bike_stands": 9,
    "banking": false,
    "last_update": 1777412651000
  },
  {
    "number": 203,
    "name": "203 - DEMOSTHENE",
    "address": "Bd Prince de Liège / Prins van Luiklaan 218",
    "position": {
      "lat": 50.84045,
      "lng": 4.305055
    },
    "status": "OPEN",
    "bike_stands": 15,
    "available_bikes": 6,
    "available_bike_stands": 8,
    "banking": false,
    "last_update": 1777412748000
  },
  {
    "number": 11,
    "name": "011 - SABLON / ZAVEL",
    "address": "Rue de la Régence 20 / Regentschapsstraat 20",
    "position": {
      "lat": 50.8404045367738,
      "lng": 4.3569983981935
    },
    "status": "OPEN",
    "bike_stands": 17,
    "available_bikes": 0,
    "available_bike_stands": 17,
    "banking": false,
    "last_update": 1777412610000
  },
  {
    "number": 25,
    "name": "025 - PORTE D'ANDERLECHT / ANDERLECHTSEPOORT",
    "address": "PORTE D'ANDERLECHT - BD DE L'ABATTOIR, 43-44",
    "position": {
      "lat": 50.845769,
      "lng": 4.338961
    },
    "status": "OPEN",
    "bike_stands": 25,
    "available_bikes": 18,
    "available_bike_stands": 6,
    "banking": false,
    "last_update": 1777412935000
  },
  {
    "number": 349,
    "name": "349 - FONSNY",
    "address": "FONSNY - AVENUE FONSNY EN FACE DES DEBOUCHES DES RUES COENRAETS ET J. CLAES",
    "position": {
      "lat": 50.833444,
      "lng": 4.334857
    },
    "status": "OPEN",
    "bike_stands": 20,
    "available_bikes": 4,
    "available_bike_stands": 16,
    "banking": false,
    "last_update": 1777412732000
  },
  {
    "number": 87,
    "name": "087 - MIROIR / SPIEGEL",
    "address": "MIROIR / SPIEGEL - Av. de Laeken (face 36) / Lakense Laan (tegenover 36)",
    "position": {
      "lat": 50.871391,
      "lng": 4.323914
    },
    "status": "OPEN",
    "bike_stands": 25,
    "available_bikes": 17,
    "available_bike_stands": 8,
    "banking": false,
    "last_update": 1777412598000
  },
  {
    "number": 152,
    "name": "152 - PLACE DAILLY / DAILLYPLEIN",
    "address": "Pl. Dailly / Daillyplein 24",
    "position": {
      "lat": 50.852389,
      "lng": 4.387373
    },
    "status": "OPEN",
    "bike_stands": 25,
    "available_bikes": 15,
    "available_bike_stands": 9,
    "banking": false,
    "last_update": 1777412599000
  },
  {
    "number": 286,
    "name": "286 - BENS",
    "address": "Chau. d'Alsemberg / Alsembergsesteenweg 615",
    "position": {
      "lat": 50.8081,
      "lng": 4.336816
    },
    "status": "OPEN",
    "bike_stands": 18,
    "available_bikes": 10,
    "available_bike_stands": 8,
    "banking": false,
    "last_update": 1777412677000
  },
  {
    "number": 24,
    "name": "024 - ROGIER",
    "address": "Pl. Rogier / Rogierplein 1",
    "position": {
      "lat": 50.855268,
      "lng": 4.358717
    },
    "status": "OPEN",
    "bike_stands": 36,
    "available_bikes": 22,
    "available_bike_stands": 14,
    "banking": false,
    "last_update": 1777412683000
  },
  {
    "number": 188,
    "name": "188 - OSSEGHEM",
    "address": "OSSEGHEM -  AVENUE MAHATMA GANDHI/ MAHATMA GANDHILAAN 10",
    "position": {
      "lat": 50.857235,
      "lng": 4.324354
    },
    "status": "OPEN",
    "bike_stands": 24,
    "available_bikes": 16,
    "available_bike_stands": 8,
    "banking": false,
    "last_update": 1777412600000
  },
  {
    "number": 195,
    "name": "195 - WESTLAND SHOPPING",
    "address": "WESTLAND SHOPPING - Bd Joseph Bracops / Joseph Bracopslaan 250",
    "position": {
      "lat": 50.838356,
      "lng": 4.284213
    },
    "status": "OPEN",
    "bike_stands": 26,
    "available_bikes": 25,
    "available_bike_stands": 1,
    "banking": false,
    "last_update": 1777412986000
  },
  {
    "number": 265,
    "name": "265 - EVERE SHOPPING",
    "address": "EVERE SHOPPING - AV DES LOISIRS / VRIJETIJDSLAAN",
    "position": {
      "lat": 50.867241,
      "lng": 4.40287
    },
    "status": "OPEN",
    "bike_stands": 25,
    "available_bikes": 15,
    "available_bike_stands": 10,
    "banking": false,
    "last_update": 1777412576000
  },
  {
    "number": 356,
    "name": "356 - SPORTCITY",
    "address": "Rond-point du Tibet / Tibetplein",
    "position": {
      "lat": 50.829715,
      "lng": 4.455151
    },
    "status": "OPEN",
    "bike_stands": 16,
    "available_bikes": 7,
    "available_bike_stands": 9,
    "banking": false,
    "last_update": 1777412586000
  },
  {
    "number": 223,
    "name": "223 - WIELS",
    "address": "WIELS - AV.WIELEMANS CEUPPENS/LAAN 7",
    "position": {
      "lat": 50.824055,
      "lng": 4.326376
    },
    "status": "CLOSED",
    "bike_stands": 12,
    "available_bikes": 0,
    "available_bike_stands": 0,
    "banking": false,
    "last_update": 1777412586000
  },
  {
    "number": 253,
    "name": "253 - REINE FABIOLA / KONINGIN FABIOLA",
    "address": "Pl. Reine Fabiola 10 / Koningin Fabiolaplein 10",
    "position": {
      "lat": 50.872676,
      "lng": 4.314497
    },
    "status": "OPEN",
    "bike_stands": 25,
    "available_bikes": 13,
    "available_bike_stands": 11,
    "banking": false,
    "last_update": 1777412635000
  },
  {
    "number": 59,
    "name": "059 - PLACE ST-JOSSE / ST-JOOSTPLEIN",
    "address": "Rue Willems / Willemstraat 2",
    "position": {
      "lat": 50.849681,
      "lng": 4.375312
    },
    "status": "OPEN",
    "bike_stands": 24,
    "available_bikes": 8,
    "available_bike_stands": 16,
    "banking": false,
    "last_update": 1777412924000
  },
  {
    "number": 179,
    "name": "179 - CELTES / KELTEN",
    "address": "Av. de Tervueren / Tervurenlaan 17",
    "position": {
      "lat": 50.839217,
      "lng": 4.398015
    },
    "status": "OPEN",
    "bike_stands": 44,
    "available_bikes": 28,
    "available_bike_stands": 15,
    "banking": false,
    "last_update": 1777412851000
  },
  {
    "number": 151,
    "name": "151 - LOUVAIN 494 / LEUVEN 494",
    "address": "Chau. de Louvain / Leuvensesteenweg 494",
    "position": {
      "lat": 50.853518,
      "lng": 4.392491
    },
    "status": "OPEN",
    "bike_stands": 25,
    "available_bikes": 16,
    "available_bike_stands": 8,
    "banking": false,
    "last_update": 1777412674000
  },
  {
    "number": 255,
    "name": "255 - SACRE-COEUR DE GANSHOREN",
    "address": "Av. Charles-Quint 27 / Keizer Karellaan 27",
    "position": {
      "lat": 50.868038,
      "lng": 4.314122
    },
    "status": "OPEN",
    "bike_stands": 25,
    "available_bikes": 7,
    "available_bike_stands": 18,
    "banking": false,
    "last_update": 1777412681000
  },
  {
    "number": 176,
    "name": "176 - COLONEL BOURG / KOLONEL BOURG",
    "address": "Rue Colonel Bourg / Kolonel Bourgstraat 106",
    "position": {
      "lat": 50.852356,
      "lng": 4.408635
    },
    "status": "OPEN",
    "bike_stands": 25,
    "available_bikes": 12,
    "available_bike_stands": 13,
    "banking": false,
    "last_update": 1777412647000
  },
  {
    "number": 42,
    "name": "042 - PORTE DE NINOVE / NINOOFSEPOORT",
    "address": "PORTE DE NINOVE / NINOOFSEPOORT - Pl. de Ninove x Bd de l'Abattoir / Ninoofseplein x Slachthuislaan",
    "position": {
      "lat": 50.84851,
      "lng": 4.338064
    },
    "status": "OPEN",
    "bike_stands": 25,
    "available_bikes": 9,
    "available_bike_stands": 16,
    "banking": false,
    "last_update": 1777412809000
  },
  {
    "number": 115,
    "name": "115 - PETITE SUISSE / KLEIN-ZWITSERLAND",
    "address": "Pl. de la Petite Suisse / Klein-Zwitserlandplein 17",
    "position": {
      "lat": 50.8178067955119,
      "lng": 4.38546967650475
    },
    "status": "OPEN",
    "bike_stands": 24,
    "available_bikes": 0,
    "available_bike_stands": 24,
    "banking": false,
    "last_update": 1777412583000
  },
  {
    "number": 75,
    "name": "075 - GENERAL BARON / GENERAAL BARON",
    "address": "GENERAL BARON / GENERAAL BARON - Av. du Parc / Parklaan 51 - 55",
    "position": {
      "lat": 50.825888,
      "lng": 4.340388
    },
    "status": "OPEN",
    "bike_stands": 25,
    "available_bikes": 11,
    "available_bike_stands": 14,
    "banking": false,
    "last_update": 1777412691000
  },
  {
    "number": 196,
    "name": "196 - PRINCE DE LIEGE / PRINS VAN LUIK",
    "address": "Chaussée de Ninove / Ninoofsesteenweg 627",
    "position": {
      "lat": 50.846874,
      "lng": 4.29817
    },
    "status": "OPEN",
    "bike_stands": 25,
    "available_bikes": 16,
    "available_bike_stands": 9,
    "banking": false,
    "last_update": 1777412585000
  },
  {
    "number": 80,
    "name": "080 - CERES",
    "address": "CERES - AV. F. ROOSEVELT/F. ROOSEVELTLAAN, 14",
    "position": {
      "lat": 50.814852,
      "lng": 4.376794
    },
    "status": "OPEN",
    "bike_stands": 20,
    "available_bikes": 6,
    "available_bike_stands": 13,
    "banking": false,
    "last_update": 1777412664000
  },
  {
    "number": 121,
    "name": "121 - ETANGS / VIJVERS",
    "address": "ETANGS / VIJVERS - RUE GUILLAUME STOCQ (FACE AU N° 1-3-5)/ GUILLAUME STOCQSTRAAT (TEGENOVER N° 1-3-5)",
    "position": {
      "lat": 50.823986,
      "lng": 4.37379
    },
    "status": "OPEN",
    "bike_stands": 25,
    "available_bikes": 21,
    "available_bike_stands": 3,
    "banking": false,
    "last_update": 1777412729000
  },
  {
    "number": 95,
    "name": "095 - PLACE BOCKSTAEL / BOCKSTAELPLAATS",
    "address": "PLACE BOCKSTAEL / BOCKSTAELPLAATS - Bd Emile Bockstael / Emile Bockstaellaan 254",
    "position": {
      "lat": 50.87808,
      "lng": 4.34793
    },
    "status": "OPEN",
    "bike_stands": 25,
    "available_bikes": 19,
    "available_bike_stands": 5,
    "banking": false,
    "last_update": 1777412657000
  },
  {
    "number": 2,
    "name": "002 - ELOY",
    "address": "ELOY - Rue Eloy / Eloystraat",
    "position": {
      "lat": 50.836151,
      "lng": 4.326019
    },
    "status": "OPEN",
    "bike_stands": 25,
    "available_bikes": 17,
    "available_bike_stands": 8,
    "banking": false,
    "last_update": 1777412691000
  },
  {
    "number": 51,
    "name": "051 - MIDI FONSNY / ZUID FONSNY",
    "address": "Rue d'Angleterre / Engelandstraat 2",
    "position": {
      "lat": 50.835699,
      "lng": 4.338826
    },
    "status": "OPEN",
    "bike_stands": 25,
    "available_bikes": 10,
    "available_bike_stands": 15,
    "banking": false,
    "last_update": 1777412703000
  },
  {
    "number": 201,
    "name": "201 - PETERBOS",
    "address": "PETERBOS - BD MARIA GROENINCKX DE MAY (FACE 26) / MARIA GROENINCKX DE MAYLAAN (TEGENOVER 26)",
    "position": {
      "lat": 50.8414,
      "lng": 4.296013
    },
    "status": "OPEN",
    "bike_stands": 25,
    "available_bikes": 5,
    "available_bike_stands": 19,
    "banking": false,
    "last_update": 1777412673000
  },
  {
    "number": 81,
    "name": "081 - PONT BOCKSTAEL / BRUG BOCKSTAEL",
    "address": "PONT BOCKSTAEL / BRUG BOCKSTAEL - Bd Emile Bockstael / Emile Bockstaellaan 5",
    "position": {
      "lat": 50.870259,
      "lng": 4.343195
    },
    "status": "OPEN",
    "bike_stands": 25,
    "available_bikes": 12,
    "available_bike_stands": 12,
    "banking": false,
    "last_update": 1777412708000
  },
  {
    "number": 37,
    "name": "037 - POELAERT",
    "address": "POELAERT - Place Poelaert / Poelaertplein 3",
    "position": {
      "lat": 50.83795,
      "lng": 4.353019
    },
    "status": "OPEN",
    "bike_stands": 25,
    "available_bikes": 17,
    "available_bike_stands": 8,
    "banking": false,
    "last_update": 1777412847000
  },
  {
    "number": 148,
    "name": "148 - GARE DE MEISER / MEISER STATION",
    "address": "Av. Rogier 377 / Rogierlaan 377",
    "position": {
      "lat": 50.855629,
      "lng": 4.394807
    },
    "status": "OPEN",
    "bike_stands": 22,
    "available_bikes": 13,
    "available_bike_stands": 9,
    "banking": false,
    "last_update": 1777412600000
  },
  {
    "number": 262,
    "name": "262 - PLACE DE LA PAIX / VREDEPLEIN",
    "address": "PLACE DE LA PAIX / VREDEPLEIN 24",
    "position": {
      "lat": 50.87693,
      "lng": 4.400722
    },
    "status": "OPEN",
    "bike_stands": 20,
    "available_bikes": 13,
    "available_bike_stands": 7,
    "banking": false,
    "last_update": 1777412645000
  },
  {
    "number": 71,
    "name": "071 - LEGRAND",
    "address": "LEGRAND - AV LOUISE/LOUIZALAAN 525",
    "position": {
      "lat": 50.815019,
      "lng": 4.371982
    },
    "status": "OPEN",
    "bike_stands": 22,
    "available_bikes": 4,
    "available_bike_stands": 18,
    "banking": false,
    "last_update": 1777412782000
  },
  {
    "number": 354,
    "name": "354 - TRIOMPHE / TRIOMF",
    "address": "Bd du Triomphe 105 / Triomflaan 105",
    "position": {
      "lat": 50.821515,
      "lng": 4.402259
    },
    "status": "OPEN",
    "bike_stands": 20,
    "available_bikes": 4,
    "available_bike_stands": 16,
    "banking": false,
    "last_update": 1777412674000
  },
  {
    "number": 293,
    "name": "293 - KEYM",
    "address": "KEYM - AVENUE DU COLVERT",
    "position": {
      "lat": 50.810528,
      "lng": 4.40231
    },
    "status": "OPEN",
    "bike_stands": 25,
    "available_bikes": 13,
    "available_bike_stands": 11,
    "banking": false,
    "last_update": 1777412688000
  },
  {
    "number": 280,
    "name": "280 - HEYSEL / HEIZEL",
    "address": "Av. Impératrice Charlotte x Av. des Athlètes / Keizerin Charlottelaan x Atletenlaan",
    "position": {
      "lat": 50.897522,
      "lng": 4.334831
    },
    "status": "OPEN",
    "bike_stands": 25,
    "available_bikes": 15,
    "available_bike_stands": 10,
    "banking": false,
    "last_update": 1777412583000
  },
  {
    "number": 64,
    "name": "064 - VETERINAIRES / VEEARTSEN",
    "address": "VETERINAIRES/VEEARTSEN - RUE DE FRANCE / FRANKRIJKSTRAAT",
    "position": {
      "lat": 50.832749,
      "lng": 4.331058
    },
    "status": "OPEN",
    "bike_stands": 25,
    "available_bikes": 14,
    "available_bike_stands": 11,
    "banking": false,
    "last_update": 1777412885000
  },
  {
    "number": 282,
    "name": "282 - CENTENAIRE / EEUWFEEST",
    "address": "CENTENAIRE / EEUWFEEST - BOULEVARD DU CENTENAIRE / EEUWFEESTLAAN",
    "position": {
      "lat": 50.89097,
      "lng": 4.344827
    },
    "status": "OPEN",
    "bike_stands": 25,
    "available_bikes": 14,
    "available_bike_stands": 11,
    "banking": false,
    "last_update": 1777412599000
  },
  {
    "number": 30,
    "name": "030 - LAEKEN / LAKEN",
    "address": "Rue de Laeken 109 / Lakensestraat 109",
    "position": {
      "lat": 50.853666,
      "lng": 4.351771
    },
    "status": "OPEN",
    "bike_stands": 25,
    "available_bikes": 19,
    "available_bike_stands": 6,
    "banking": false,
    "last_update": 1777412681000
  },
  {
    "number": 68,
    "name": "068 - JEAN REY",
    "address": "JEAN REY - PLACE JEAN REY/JEAN REYPLAATS",
    "position": {
      "lat": 50.840282,
      "lng": 4.380131
    },
    "status": "OPEN",
    "bike_stands": 33,
    "available_bikes": 14,
    "available_bike_stands": 18,
    "banking": false,
    "last_update": 1777412672000
  },
  {
    "number": 222,
    "name": "222 - MERCKX",
    "address": "MERCKX - ROUTE DE LENNIK / LENNIKSEBAAN",
    "position": {
      "lat": 50.8172462427287,
      "lng": 4.28044544916521
    },
    "status": "OPEN",
    "bike_stands": 25,
    "available_bikes": 12,
    "available_bike_stands": 13,
    "banking": false,
    "last_update": 1777412585000
  },
  {
    "number": 33,
    "name": "033 - MORT SUBITE",
    "address": "MORT SUBITE - RUE MONTAGNE AUX-HERBES-POTAGERES (FACE N° 7)/WARMOESBERG (TEGENOVER N°7)",
    "position": {
      "lat": 50.848701,
      "lng": 4.356055
    },
    "status": "OPEN",
    "bike_stands": 25,
    "available_bikes": 4,
    "available_bike_stands": 21,
    "banking": false,
    "last_update": 1777413042000
  },
  {
    "number": 85,
    "name": "085 - ETANGS NOIRS / ZWARTE VIJVERS",
    "address": "ETANGS NOIRS / ZWARTE VIJVERS - Chau. de Gand / Gentsesteenweg 182",
    "position": {
      "lat": 50.8572655240874,
      "lng": 4.33236837868758
    },
    "status": "OPEN",
    "bike_stands": 25,
    "available_bikes": 12,
    "available_bike_stands": 8,
    "banking": false,
    "last_update": 1777412594000
  },
  {
    "number": 32,
    "name": "032 - DANSAERT",
    "address": "Rue Antoine Dansaert 64 / Antoine Dansaertstraat 64",
    "position": {
      "lat": 50.8502235708238,
      "lng": 4.34613673736941
    },
    "status": "OPEN",
    "bike_stands": 35,
    "available_bikes": 33,
    "available_bike_stands": 1,
    "banking": false,
    "last_update": 1777412707000
  },
  {
    "number": 252,
    "name": "252 - BEMPT",
    "address": "Chaussée de Neerstalle / Neerstalsesteenweg 226",
    "position": {
      "lat": 50.803413,
      "lng": 4.314756
    },
    "status": "OPEN",
    "bike_stands": 23,
    "available_bikes": 14,
    "available_bike_stands": 8,
    "banking": false,
    "last_update": 1777412630000
  },
  {
    "number": 192,
    "name": "192 - AUBERGE DE JEUNESSE / JEUGDHERBERG",
    "address": "Rue Delaunoy 67 x Rue de l'Éléphant 109 / Delaunoystraat 67 x Olifantstraat 109",
    "position": {
      "lat": 50.851562,
      "lng": 4.332924
    },
    "status": "OPEN",
    "bike_stands": 25,
    "available_bikes": 17,
    "available_bike_stands": 7,
    "banking": false,
    "last_update": 1777412697000
  },
  {
    "number": 340,
    "name": "340 - TOMBERG",
    "address": "AVENUE PAUL HYMANSLAAN",
    "position": {
      "lat": 50.843617,
      "lng": 4.425324
    },
    "status": "OPEN",
    "bike_stands": 24,
    "available_bikes": 16,
    "available_bike_stands": 8,
    "banking": false,
    "last_update": 1777412584000
  },
  {
    "number": 213,
    "name": "213 - LA ROUE / HET RAD",
    "address": "Chaussée de Mons / Bergensesteenweg 1110, 1070 Anderlecht",
    "position": {
      "lat": 50.821018,
      "lng": 4.293865
    },
    "status": "OPEN",
    "bike_stands": 15,
    "available_bikes": 6,
    "available_bike_stands": 9,
    "banking": false,
    "last_update": 1777412526000
  },
  {
    "number": 128,
    "name": "128 - MUSEE DU TRAM / TRAMMUSEUM",
    "address": "Av. de Tervueren / Tervurenlaan (Jose de San Martin)",
    "position": {
      "lat": 50.832355,
      "lng": 4.432358
    },
    "status": "OPEN",
    "bike_stands": 25,
    "available_bikes": 12,
    "available_bike_stands": 13,
    "banking": false,
    "last_update": 1777412905000
  },
  {
    "number": 233,
    "name": "233 - PARC DUDEN / DUDENPARK",
    "address": "Av. Victor Rousseau 132 / Victor Rousseaulaan 132",
    "position": {
      "lat": 50.813938,
      "lng": 4.330966
    },
    "status": "OPEN",
    "bike_stands": 20,
    "available_bikes": 4,
    "available_bike_stands": 14,
    "banking": false,
    "last_update": 1777412609000
  },
  {
    "number": 303,
    "name": "303 - VIEUX TILLEUL / OUDE LINDE",
    "address": "Av. du Bois de la Cambre 111 / Terkamerenboslaan 111",
    "position": {
      "lat": 50.807938,
      "lng": 4.392845
    },